Customer ID,Order City,Order Postal,Order State,Latitude,Longitude
18287,Rock Springs,82901-7321,WY,41.5869,-109.2048
18283,JACKSON,83001-9460,WY,43.48,-110.7618
18282,Greybull,82426,WY,44.4892,-108.0562
18281,EVANSTON,82930-4706,WY,41.268,-110.9633
18280,CHEYENNE,82001-7901,WY,41.14,-104.8202
18278,WHEELING,26003-6635,WV,40.064,-80.7209
18277,SHEPHERDSTOWN,25443-4827,WV,39.4301,-77.8042
18276,RIDGELEY,26753-7083,WV,39.6415,-78.7745
18274,MOUNT HOPE,25880-1324,WV,37.8954,-81.1643
18273,MOUNT CLARE,26408-6998,WV,39.19,-80.33
18272,MOUNDSVILLE,26041-4037,WV,39.9204,-80.7431
18270,MORGANTOWN,26508-8649,WV,39.6295,-79.9559
18269,MORGANTOWN,26508-4276,WV,39.6295,-79.9559
18268,Martinsburg,25404,WV,39.4561,-77.9638
18265,Jumping Branch,25969,WV,37.6576,-80.9765
18263,Fayetteville,25840,WV,38.0531,-81.104
18262,FAIRMONT,26554-8240,WV,39.4851,-80.1426
18261,COLLIERS,26035-1500,WV,40.367,-80.5412
18260,COLLIERS,26035,WV,40.367,-80.5412
18259,CHARLESTON,25387-1201,WV,38.3506,-81.6333
18257,CHARLESTON,25304-1451,WV,38.3506,-81.6333
18256,Chapmanville,25508,WV,37.9737,-82.0174
18255,Sun Prairie,53590,Wisconsin,43.1835,-89.2134
18252,rice lake,54868,Wisconsin,45.5028,-91.7332
18251,Kaukauna,54130,Wisconsin,44.278,-88.2721
18250,WESTON,54476-1956,WI,,
18249,WEST ALLIS,53219-2056,WI,43.0167,-88.007
18248,WAUWATOSA,53213-1221,WI,43.0494,-88.0079
18246,WAUSAU,54401-3972,WI,44.9596,-89.6298
18245,Waunakee,53597,WI,43.1919,-89.4557
18242,Wales,53183,WI,43.0045,-88.3768
18241,SUN PRAIRIE,53590-3830,WI,43.1835,-89.2134
18240,SOLON SPRINGS,54873-8132,WI,46.3533,-91.8224
18239,SLINGER,53086-9103,WI,43.3334,-88.2858
18237,SCHOFIELD,54476-1331,WI,44.9097,-89.6046
18236,salem,53168,wi,42.5547,-88.1109
18235,RACINE,53405-5032,WI,42.7261,-87.7825
18233,Port Washington,53074-1531,WI,43.3872,-87.8756
18232,PLEASANT PRAIRIE,53158-3842,WI,42.5523,-87.9314
18231,PLATTEVILLE,53818-1946,WI,42.7343,-90.4784
18230,PARDEEVILLE,53954-9472,WI,43.5378,-89.3001
18229,OSHKOSH,54902-9176,WI,44.0207,-88.5409
18228,Oregon,53575,WI,42.926,-89.3843
18227,ONALASKA,54650-2130,WI,43.8831,-91.2344
18226,OCONTO FALLS,54154-1602,WI,44.8739,-88.1429
18225,OCONOMOWOC,53066-3475,WI,43.1117,-88.4993
18224,NORTH FOND DU LAC,54937-1219,WI,43.8114,-88.4834
18223,NEW BERLIN,53151-2522,WI,42.9765,-88.109
18222,NESHKORO,54960-8708,WI,43.9658,-89.2176
18221,NEENAH,54956-2031,WI,44.1858,-88.4626
18220,MUSKEGO,53150-9607,WI,42.9058,-88.139
18219,MUSKEGO,53150-6204,WI,42.9058,-88.139
18218,MINONG,54859-4601,WI,46.0994,-91.8248
18217,MILWAUKEE,53211-2812,WI,43.0115,-87.9735
18216,Milwaukee,53211,WI,43.0115,-87.9735
18215,Milwaukee,53206,WI,43.0115,-87.9735
18213,MILTON,53563,WI,42.7756,-88.944
18212,MIDDLETON,53562-3555,WI,43.1056,-89.5089
18211,MEQUON,53092-5531,WI,43.2219,-87.9823
18210,MENASHA,54952-9507,WI,44.2022,-88.4465
18209,MEDFORD,54451-9344,WI,45.1389,-90.3461
18205,Mayville,53050,WI,43.4942,-88.5448
18204,Marshfield,54449,WI,44.6689,-90.1718
18203,MANITOWOC,54220-9352,WI,44.0886,-87.6576
18202,Manitowoc,54220,WI,44.0886,-87.6576
18200,MALONE,53049-1526,WI,43.8603,-88.2815
18198,"Madison,",53703,WI,43.0748,-89.3838
18196,MADISON,53714-3330,WI,43.0748,-89.3838
18194,MADISON,53705-1435,WI,43.0748,-89.3838
18193,MADISON,53704-2017,WI,43.0748,-89.3838
18192,MADISON,53703-2938,WI,43.0748,-89.3838
18191,Madison,53703-1504,WI,43.0748,-89.3838
18190,Lake Geneva,53147-2009,WI,42.5917,-88.4334
18189,LaCrosse,54601,WI,43.8014,-91.2396
18188,La Valle,53941-9430,WI,43.5822,-90.1282
18185,Kewaskum,53040,WI,43.5214,-88.2279
18184,KENOSHA,53142-3957,WI,42.5847,-87.8212
18183,Kenosha,53142,Wi,42.5847,-87.8212
18181,Hudson,54016,WI,44.9747,-92.7569
18180,HOLMEN,54636-9230,WI,43.9633,-91.2563
18179,HILES,54511-8954,WI,,
18178,HAYWARD,54843-4043,WI,46.013,-91.4849
18177,GREENLEAF,54126-9616,WI,44.3136,-88.0957
18176,GREEN BAY,54311-4509,WI,44.5299,-88.0248
18174,Green Bay,54311,WI,44.5299,-88.0248
18173,GREEN BAY,54301-2424,WI,44.5299,-88.0248
18172,GREEN BAY,54301-1044,WI,44.5299,-88.0248
18171,Franklin,53132-8354,WI,42.8886,-88.0384
18170,FRANKLIN,53132-8192,WI,42.8886,-88.0384
18169,FRANKLIN,53132-8016,WI,42.8886,-88.0384
18168,ELKHORN,53121-4530,WI,42.6728,-88.5445
18167,EAU GALLE,54737-9562,WI,,
18165,delavan,53115,WI,42.6331,-88.6437
18164,DE PERE,54115-4123,WI,44.4487,-88.0601
18161,Danbury,54830,WI,46.0066,-92.3713
18160,COLBY,54421-9775,WI,44.91,-90.3157
18159,CEDARBURG,53012-2729,WI,43.2967,-87.9876
18158,Cedarburg,53012,WI,43.2967,-87.9876
18156,BUTLER,53007-1204,WI,43.1058,-88.0695
18155,BURLINGTON,53105-3603,WI,42.6781,-88.2762
18154,BROOKFIELD,53045-7818,WI,43.0606,-88.1065
18151,BROOKFIELD,53005-1673,WI,43.0606,-88.1065
18150,BIRNAMWOOD,54414,WI,44.9333,-89.2096
18149,BIRCHWOOD,54817-9013,WI,45.6663,-91.556
18147,BEAVER DAM,53916-1246,WI,43.4578,-88.8373
18146,ARGYLE,53504-9725,WI,42.701,-89.8672
18145,APPLETON,54915-7421,WI,44.2611,-88.4068
18144,APPLETON,54914-6428,WI,44.2611,-88.4068
18143,VOLGA,26238-8633,WEST VIRGINIA,39.0784,-80.1354
18142,YAKIMA,98908-1716,WASHINGTON,46.6016,-120.5108
18141,VANCOUVER,98685-3870,WASHINGTON,45.6307,-122.6745
18139,vancouver,98664-3431,Washington,45.6307,-122.6745
18138,Vancouver,98664,Washington,45.6307,-122.6745
18136,OAK HARBOR,98277-7843,WASHINGTON,48.2932,-122.6432
18135,Mount Vernon,98273,Washington,48.42,-122.3264
18133,Moses Lake,98837,Washington,47.1301,-119.2781
18130,MONROE,98272-1721,WASHINGTON,47.856,-121.9706
18129,WOODINVILLE,98072-9249,WA,47.7546,-122.1589
18127,WOODINVILLE,98072-6446,WA,47.7546,-122.1589
18126,WENATCHEE,98801-9159,WA,47.4235,-120.3103
18125,Washougal,98671,WA,45.582,-122.348
18123,Walla Walla,99362,WA,46.065,-118.3303
18122,VERADALE,99037-8227,WA,47.656,-117.2016
18121,VASHON,98070-3224,WA,47.4446,-122.459
18120,VANCOUVER,98662-4720,WA,45.6307,-122.6745
18119,tukwila,98168,wa,47.4627,-122.2559
18118,TACOMA,98422-3480,WA,47.2496,-122.4399
18117,Tacoma,98406-5824,WA,47.2496,-122.4399
18116,SPOKANE,99223-6365,WA,47.6589,-117.4247
18114,SPOKANE,99208-8213,WA,47.6589,-117.4247
18113,SPOKANE,99206-4437,WA,47.6589,-117.4247
18112,SPOKANE,99205-7633,WA,47.6589,-117.4247
18110,SPOKANE,99203-1960,WA,47.6589,-117.4247
18109,spokane,99201,wa,47.6589,-117.4247
18108,SNOHOMISH,98290-6215,WA,47.918,-122.09
18106,Snohomish,98290-4112,WA,47.918,-122.09
18105,SILVERDALE,98383-9280,WA,47.6594,-122.6766
18104,SILVERDALE,98383-3600,WA,47.6594,-122.6766
18102,SHORELINE,98133-4705,WA,47.7563,-122.3438
18101,SHELTON,98584-7265,WA,47.2151,-123.1007
18099,SEQUIM,98382-3171,WA,48.0849,-123.1097
18097,SEATTLE,98199-2540,WA,47.6038,-122.3301
18096,Seattle,98199,WA,47.6038,-122.3301
18095,SEATTLE,98146-3578,WA,47.6038,-122.3301
18094,Seattle,98146,Wa,47.6038,-122.3301
18093,SEATTLE,98122-4807,WA,47.6038,-122.3301
18092,SEATTLE,98122-4534,WA,47.6038,-122.3301
18088,Seattle,98121-1453,WA,47.6038,-122.3301
18087,Seattle,98116,WA,47.6038,-122.3301
18086,SEATTLE,98115-6303,WA,47.6038,-122.3301
18085,SEATTLE,98112-4828,WA,47.6038,-122.3301
18084,SEATTLE,98109-5334,WA,47.6038,-122.3301
18082,seattle,98107,wa,47.6038,-122.3301
18081,SEATTLE,98106-2403,WA,47.6038,-122.3301
18080,SEATTLE,98106-2137,WA,47.6038,-122.3301
18079,SEATTLE,98105-2445,WA,47.6038,-122.3301
18078,SEATTLE,98104-4084,WA,47.6038,-122.3301
18077,SEATTLE,98104-2323,WA,47.6038,-122.3301
18075,SEATTLE,98104-1366,WA,47.6038,-122.3301
18074,SEATTLE,98103,WA,47.6038,-122.3301
18073,SEATTLE,98101-4206,WA,47.6038,-122.3301
18072,SEATTLE,98101-2033,WA,47.6038,-122.3301
18071,SAMMAMISH,98074-6678,WA,47.6088,-122.0423
18069,RENTON,98058,WA,47.4799,-122.2034
18068,RENTON,98057-2178,WA,47.4799,-122.2034
18067,Renton,98056,WA,47.4799,-122.2034
18066,REDMOND,98053-8607,WA,47.6694,-122.1239
18065,REDMOND,98053-2028,WA,47.6694,-122.1239
18064,QUIL CEDA VILLAGE,98271-8085,WA,,
18062,Puyallup,98374,Wa,47.1849,-122.2921
18061,PUYALLUP,98372-5275,WA,47.1849,-122.2921
18059,POULSBO,98370-9540,WA,47.7391,-122.6393
18058,PORT ORCHARD,98367-8275,WA,47.5316,-122.6384
18056,POINT ROBERTS,98281-9712,WA,48.9854,-123.078
18055,Olympia,98516-6801,WA,47.045,-122.8949
18053,OLYMPIA,98512-9452,WA,47.045,-122.8949
18050,olalla,98359,wa,47.4305,-122.5429
18048,NINE MILE FALLS,99026-9243,WA,47.7757,-117.5461
18045,MOUNT VERNON,98274-8224,WA,48.42,-122.3264
18044,MILL CREEK,98012-8401,WA,47.8601,-122.2043
18043,MILL CREEK,98012-4926,WA,47.8601,-122.2043
18042,MAPLE FALLS,98266-7015,WA,48.9243,-122.0771
18041,LYNNWOOD,98087-8427,WA,47.8279,-122.3054
18040,LYNDEN,98264-9446,WA,48.9466,-122.4569
18037,Lynden,98264,WA,48.9466,-122.4569
18036,LANGLEY,98260-8018,WA,48.04,-122.4094
18035,LAKEWOOD,98498-6500,WA,47.1718,-122.5185
18034,LAKE STEVENS,98258-8499,WA,48.0198,-122.0661
18033,LA CONNER,98257-0839,WA,48.3887,-122.4963
18032,LA CENTER,98629-5409,WA,45.8639,-122.6686
18030,KIRKLAND,98033-8302,WA,47.686,-122.192
18027,KIRKLAND,98033,WA,47.686,-122.192
18024,Kent,98030-8894,WA,47.3827,-122.227
18022,KENMORE,98028-3361,WA,47.7573,-122.244
18019,ISSAQUAH,98027-5619,WA,47.5349,-122.0433
18018,ISSAQUAH,98027-3644,WA,47.5349,-122.0433
18017,Indianola,98342,Wa,47.7514,-122.5228
18016,Graham,98338,Wa,47.0396,-122.2786
18015,Gig Harbor,98332-9626,WA,47.326,-122.5879
18014,GIG HARBOR,98332-5503,WA,47.326,-122.5879
18013,Gig Harbor,98332,WA,47.326,-122.5879
18011,Fircrest,98466,WA,47.2317,-122.5143
18010,EVERETT,98208-3119,WA,47.9673,-122.2014
18009,EVERETT,98203-2734,WA,47.9673,-122.2014
18008,Enumclaw,98022,WA,47.2048,-121.9916
18006,EDMONDS,98026-7305,WA,47.8106,-122.3775
18005,East Wenatchee,98802,WA,47.4157,-120.2931
18004,DUVALL,98019-8134,WA,47.7423,-121.9857
18001,DES MOINES,98198-8532,WA,47.3988,-122.3099
17999,COLVILLE,99114-2015,WA,48.5466,-117.9055
17997,Chelan,98816,WA,47.841,-120.0165
17995,CHEHALIS,98532-1606,WA,46.66,-122.9634
17994,Centralia,98531,WA,46.7204,-122.9614
17991,BURLINGTON,98233-2910,WA,48.4757,-122.3254
17990,BURIEN,98166-2333,WA,47.4699,-122.3485
17988,BRUSH PRAIRIE,98606-7281,WA,45.7289,-122.5421
17987,Brush Prairie,98606,WA,45.7289,-122.5421
17986,BRIER,98036-8489,WA,47.7845,-122.2743
17985,BOTHELL,98021-8040,WA,47.7599,-122.2068
17984,BOTHELL,98012-7472,WA,47.7599,-122.2068
17980,BOTHELL,98011-2347,WA,47.7599,-122.2068
17979,BELLINGHAM,98229-9351,WA,48.7544,-122.4789
17978,BELLINGHAM,98229-2519,WA,48.7544,-122.4789
17977,Bellingham,98229,WA,48.7544,-122.4789
17976,BELLINGHAM,98226-9441,WA,48.7544,-122.4789
17975,BELLINGHAM,98226-4632,WA,48.7544,-122.4789
17974,BELLINGHAM,98225-3525,WA,48.7544,-122.4789
17973,BELLINGHAM,98225-2728,WA,48.7544,-122.4789
17972,Bellevue,98008,WA,47.6144,-122.1923
17970,Bellevue,98005,WA,47.6144,-122.1923
17969,BELLEVUE,98004-8533,WA,47.6144,-122.1923
17968,Bellevue,98004-6725,WA,47.6144,-122.1923
17967,BELLEVUE,98004-5133,WA,47.6144,-122.1923
17966,BELLEVUE,98004-5058,WA,47.6144,-122.1923
17965,BATTLE GROUND,98604-6439,WA,45.7814,-122.5337
17964,BAINBRIDGE ISLAND,98110-2641,WA,47.6553,-122.5351
17962,AUBURN,98092-3284,WA,47.3075,-122.2302
17961,ARLINGTON,98223-5024,WA,48.1811,-122.139
17960,ANACORTES,98221-1722,WA,48.502,-122.6237
17958,stowe,5672,VT,44.4656,-72.6849
17957,RUTLAND,5701,VT,43.6106,-72.9726
17956,NORTHFIELD,05663-6155,VT,44.1512,-72.6565
17955,BURLINGTON,05408-2667,VT,44.4724,-73.2115
17954,BARRE,05641-4922,VT,44.197,-72.502
17951,YORKTOWN,23693-4433,VIRGINIA,37.2379,-76.5081
17950,Williamsburg,23188,Virginia,37.2707,-76.7075
17949,Vienna,22182-3405,Virginia,38.9013,-77.2652
17948,Vienna,22182,Virginia,38.9013,-77.2652
17947,Suffolk,23434-6211,Virginia,36.7282,-76.5836
17946,SPRINGFIELD,22152-2216,VIRGINIA,38.7891,-77.187
17942,Springfield,22150,Virginia,38.7891,-77.187
17941,SOUTH HILL,23970,Virginia,36.7265,-78.1291
17940,ROANOKE CITY,24014,VIRGINIA,,
17939,Reston,20190,Virginia,38.9584,-77.358
17937,PORT HAYWOOD,23138-2096,VIRGINIA,37.386,-76.3172
17936,MANASSAS,20110-7942,VIRGINIA,38.7509,-77.4753
17935,Henrico,23238-3846,Virginia,37.65,-77.61
17934,FALLS CHURCH,22041-2508,VIRGINIA,38.8823,-77.1711
17932,Chester,23831,Virginia,37.3569,-77.4422
17931,Chatham,24531,Virginia,36.8257,-79.3981
17930,Centreville,20121,Virginia,38.8404,-77.4289
17929,Centreville,20120,Virginia,38.8404,-77.4289
17928,HYDE PARK,05655-9361,VERMONT,44.5939,-72.6165
17926,Virginia Beach,23454-2613,Va.,36.853,-75.9774
17925,YORKTOWN,23692-4087,VA,37.2379,-76.5081
17924,Wytheville,24382-1633,VA,36.948,-81.087
17923,woodbridge,22192,va,38.6582,-77.2497
17921,WIRTZ,24184-3899,VA,37.0765,-79.8895
17920,WINDSOR,23487-8912,VA,36.8085,-76.7441
17919,WILLIAMSBURG,23188-8913,VA,37.2707,-76.7075
17917,WILLIAMSBURG,23188-2809,VA,37.2707,-76.7075
17914,Williamsburg,23188-1115,VA,37.2707,-76.7075
17913,Williamsburg,23188,VA,37.2707,-76.7075
17912,WARRENTON,20186-9650,VA,38.7135,-77.7954
17911,Virginia Beach,23456,VA,36.853,-75.9774
17908,Virginia Beach,23455,Va,36.853,-75.9774
17906,VIRGINIA BEACH,23454-6807,VA,36.853,-75.9774
17905,Virginia Beach,23453-6656,VA,36.853,-75.9774
17904,Virginia Beach,23451,Va,36.853,-75.9774
17901,VIENNA,22182-2382,VA,38.9013,-77.2652
17900,Vienna,22180-4105,VA,38.9013,-77.2652
17899,TOANO,23168-9120,VA,37.3799,-76.8041
17898,STERLING,20165-7311,VA,39.0016,-77.4032
17897,STERLING,20164-2329,VA,39.0016,-77.4032
17896,SPRINGFIELD,22151-3925,VA,38.7891,-77.187
17895,SPOTSYLVANIA,22551-6513,VA,38.1881,-77.6742
17894,RUCKERSVILLE,22968-2336,VA,38.2332,-78.3692
17893,ROCKVILLE,23146-1629,VA,37.726,-77.6783
17892,ROCKBRIDGE BATHS,24473-2310,VA,37.94,-79.39
17891,ROANOKE,24019-6010,VA,37.271,-79.9414
17890,ROANOKE,24018-9149,VA,37.271,-79.9414
17889,Richmond,23238,VA,37.5385,-77.4343
17888,RICHMOND,23233-6605,VA,37.5385,-77.4343
17887,RICHMOND,23230-5028,VA,37.5385,-77.4343
17886,Richmond,23224,VA,37.5385,-77.4343
17885,RICHMOND,23223-2427,VA,37.5385,-77.4343
17884,Richmond,23223-1159,VA,37.5385,-77.4343
17883,RICHMOND,23221-3318,VA,37.5385,-77.4343
17881,RICHMOND,23221-3212,VA,37.5385,-77.4343
17880,Reston,20191,VA,38.9584,-77.358
17879,RESTON,20190-4716,VA,38.9584,-77.358
17878,PURCELLVILLE,20132-5100,VA,39.1368,-77.7147
17877,POTOMAC FALLS,20165-5662,VA,,
17874,Portsmouth,23703,VA,36.8354,-76.2983
17873,ORANGE,22960-2608,VA,38.2454,-78.1108
17871,ORANGE,22960-1733,VA,38.2454,-78.1108
17870,OAKTON,22124-2002,VA,38.8814,-77.3006
17869,NORTH CHESTERFIELD,23235-6063,VA,,
17867,NORFOLK,23505-2603,VA,36.8465,-76.2916
17866,NORFOLK,23504-3901,VA,36.8465,-76.2916
17865,NORFOLK,23503-3406,VA,36.8465,-76.2916
17864,NORFOLK,23502-4009,VA,36.8465,-76.2916
17863,MONTPELIER,23192-2050,VA,37.8213,-77.6844
17862,MIDLOTHIAN,23113-1108,VA,37.5063,-77.6493
17861,MIDLOTHIAN,23112-4492,VA,37.5063,-77.6493
17860,MCLEAN,22102-7722,VA,38.92,-77.22
17859,McLean,22101,VA,38.92,-77.22
17858,Manassas,20112,VA,38.7509,-77.4753
17857,MANASSAS,20110-5688,VA,38.7509,-77.4753
17856,LOUISA,23093-5506,VA,38.025,-78.0036
17855,LEESBURG,20175-6596,VA,39.1154,-77.5645
17854,HERNDON,20171-4829,VA,38.9695,-77.3859
17852,HERNDON,20170-2500,VA,38.9695,-77.3859
17850,HEATHSVILLE,22473-2244,VA,37.9176,-76.4722
17849,HAYMARKET,20169-2631,VA,38.8121,-77.6367
17848,Haymarket,20169,VA,38.8121,-77.6367
17846,HAMPTON,23666-1813,VA,37.0301,-76.3452
17844,Hampton,23666-1741,VA,37.0301,-76.3452
17843,GROTTOES,24441-4609,VA,38.2674,-78.8259
17841,GREAT FALLS,22066-1101,VA,38.9982,-77.2883
17839,GORDONSVILLE,22942-9618,VA,38.1374,-78.1878
17838,FREDERICKSBURG,22407-5211,VA,38.2968,-77.4834
17837,FALLS CHURCH,22046-3626,VA,38.8823,-77.1711
17836,FALLS CHURCH,22044-2630,VA,38.8823,-77.1711
17835,FALLS CHURCH,22042-2910,VA,38.8823,-77.1711
17832,FAIRFAX,22033-2159,VA,38.8462,-77.3064
17831,Fairfax,22033,VA,38.8462,-77.3064
17830,FAIRFAX,22032-2035,VA,38.8462,-77.3064
17829,Fairfax,22032,VA,38.8462,-77.3064
17828,FAIRFAX,22031-4734,VA,38.8462,-77.3064
17827,DILLWYN,23936-2471,VA,37.5429,-78.4572
17824,Concord,24538-3359,VA,37.3426,-78.975
17820,COLLINSVILLE,24078-3077,VA,36.7151,-79.9153
17819,CLIFTON,20124-1098,VA,38.7802,-77.3865
17817,CHESAPEAKE,23323,VA,36.7184,-76.2467
17816,CHESAPEAKE,23322-7479,VA,36.7184,-76.2467
17813,CHESAPEAKE,23322-3980,VA,36.7184,-76.2467
17812,Chesapeake,23322,VA,36.7184,-76.2467
17811,CHESAPEAKE,23320-5202,VA,36.7184,-76.2467
17809,Charlottesville,22911-8412,VA,38.0293,-78.4767
17806,charlottesville,22911,va,38.0293,-78.4767
17805,Charlottesville,22903-9369,VA,38.0293,-78.4767
17802,CHARLOTTESVILLE,22903-4047,VA,38.0293,-78.4767
17800,Centreville,20121,VA,38.8404,-77.4289
17799,Burke,22015-4238,VA,38.7771,-77.2755
17797,BURKE,22015-1697,VA,38.7771,-77.2755
17796,Burke,22015,VA,38.7771,-77.2755
17795,BLACKSTONE,23824-2608,VA,37.0804,-77.9972
17793,BLACKSBURG,24060-8835,VA,37.2297,-80.4137
17791,BERRYVILLE,22611-1438,VA,39.1518,-77.9822
17790,BEDFORD,24523-3238,VA,37.3345,-79.5235
17789,Bedford,24523,VA,37.3345,-79.5235
17788,AYLETT,23009-2103,VA,37.786,-77.105
17787,ASHBURN,20147-2934,VA,39.0437,-77.4875
17786,ARLINGTON,22207-5165,VA,38.8769,-77.0893
17785,ARLINGTON,22206-3147,VA,38.8769,-77.0893
17783,ARLINGTON,22202-5124,VA,38.8769,-77.0893
17781,ARLINGTON,22202-2397,VA,38.8769,-77.0893
17779,Arlington,22201-3804,VA,38.8769,-77.0893
17777,Amherst,24521,VA,37.5851,-79.0514
17775,Alexandria,22314-6802,VA,38.8051,-77.047
17774,ALEXANDRIA,22308-2743,VA,38.8051,-77.047
17772,ALEXANDRIA,22303-1561,VA,38.8051,-77.047
17771,Alexandria,22302-2716,VA,38.8051,-77.047
17770,ALEXANDRIA,22302-1721,VA,38.8051,-77.047
17769,ALEXANDRIA,22301-1038,VA,38.8051,-77.047
17768,SANDY,84092-5238,UTAH,40.5749,-111.848
17767,Salem,84653,Utah,40.053,-111.6735
17765,PLEASANT GROVE,84062-2165,UTAH,40.3641,-111.7385
17764,HOLDEN,84636-0038,UTAH,39.0989,-112.2708
17763,AMERICAN FORK,84003-1866,UTAH,40.3769,-111.7958
17761,West Valley,84119-4286,UT,,
17760,West Haven,84401-8460,UT,41.205,-112.0489
17759,Vernal,84078,UT,40.4555,-109.5287
17758,TOOELE,84074-2409,UT,40.5308,-112.2983
17757,TOOELE,84074-1953,UT,40.5308,-112.2983
17754,SANTAQUIN,84655-7903,UT,39.9755,-111.7852
17752,SANTA CLARA,84765-5750,UT,37.133,-113.6541
17750,SANDY,84093-6426,UT,40.5749,-111.848
17749,Sandy,84092-3067,UT,40.5749,-111.848
17747,SALT LAKE CITY,84124-1846,UT,40.767,-111.8904
17746,SALT LAKE CITY,84115-2216,UT,40.767,-111.8904
17744,SALT LAKE CITY,84109-1628,UT,40.767,-111.8904
17742,Salt Lake City,84106,UT,40.767,-111.8904
17739,SALT LAKE CITY,84105-3746,UT,40.767,-111.8904
17738,SAINT GEORGE,84770-6582,UT,37.11,-113.56
17737,Provo,84604-4245,UT,40.2338,-111.6585
17736,Pleasant Grove,84062,UT,40.3641,-111.7385
17735,OREM,84097-6425,UT,40.2975,-111.6945
17734,NORTH SALT LAKE,84054-3043,UT,40.8486,-111.9069
17733,NORTH OGDEN,84414-3408,UT,41.3071,-111.9602
17732,Midvale,84047,UT,40.6111,-111.8999
17731,LINDON,84042-1947,UT,40.3433,-111.7208
17730,CEDAR CITY,84720-3319,UT,37.6775,-113.0619
17728,BOUNTIFUL,84010-8055,UT,40.8895,-111.8805
17727,Chester,23831,Virginia,37.3569,-77.4422
17725,Zapata,78076,Tx,26.988,-99.1674
17724,Wimberley,78676,TX,29.9974,-98.0986
17723,West Lake Hills,78746-5502,TX,30.298,-97.8019
17722,WEST,76691-1512,TX,31.8035,-97.0933
17720,WESLACO,78599-4584,TX,26.1595,-97.9908
17719,WAXAHACHIE,75165-1552,TX,32.3865,-96.8483
17718,Watauga,76148,TX,32.8579,-97.2547
17716,WATAUGA,76137-4758,TX,32.8579,-97.2547
17715,Waco,76710,TX,31.5493,-97.1467
17714,Waco,76708,TX,31.5493,-97.1467
17712,VIDOR,77662-8318,TX,30.1316,-94.0155
17711,vidor,77662,tx,30.1316,-94.0155
17709,Van,75790,Tx,32.5249,-95.6372
17708,TYLER,75703-9381,TX,32.3513,-95.3011
17707,TOMBALL,77377-9017,TX,30.0972,-95.6161
17706,the woodlands,77382,tx,30.1734,-95.5047
17705,THE HILLS,78738-1421,TX,,
17704,The Hills,78738,TX,,
17703,TEXARKANA,75501-2956,TX,33.4251,-94.0477
17702,Temple,76502-6078,TX,31.0982,-97.3428
17701,SUGAR LAND,77479-4786,TX,29.6197,-95.6349
17700,SPRING,77388-5459,TX,30.0799,-95.4173
17698,SPRING,77388-4862,TX,30.0799,-95.4173
17697,SPRING,77386-4173,TX,30.0799,-95.4173
17696,Spring,77386,TX,30.0799,-95.4173
17695,SPICEWOOD,78669-2324,TX,30.4755,-98.1564
17694,SOUTHLAKE,76092-9427,TX,32.9412,-97.1342
17693,SMITHVILLE,78957-5176,TX,30.0086,-97.1594
17692,SMITHVILLE,78957-2299,TX,30.0086,-97.1594
17691,SEGUIN,78155-8700,TX,29.5688,-97.9647
17690,SEADRIFT,77983-0726,TX,28.4153,-96.7136
17686,SEABROOK,77586-1680,TX,29.5633,-95.0197
17685,Seabrook,77586,TX,29.5633,-95.0197
17684,San Antonio,78255-1028,TX,29.4246,-98.4951
17682,SAN ANTONIO,78254-6060,TX,29.4246,-98.4951
17680,SAN ANTONIO,78253-5538,TX,29.4246,-98.4951
17679,SAN ANTONIO,78251-4995,TX,29.4246,-98.4951
17678,SAN ANTONIO,78250-6516,TX,29.4246,-98.4951
17677,SAN ANTONIO,78250-4312,TX,29.4246,-98.4951
17676,SAN ANTONIO,78249-3865,TX,29.4246,-98.4951
17675,SAN ANTONIO,78245-3475,TX,29.4246,-98.4951
17674,SAN ANTONIO,78217-3405,TX,29.4246,-98.4951
17673,SAN ANTONIO,78216-2135,TX,29.4246,-98.4951
17672,SAN ANTONIO,78215-1944,TX,29.4246,-98.4951
17671,SAN ANTONIO,78212-5219,TX,29.4246,-98.4951
17670,SAN ANTONIO,78212-2357,TX,29.4246,-98.4951
17669,San Antonio,78210-1801,TX,29.4246,-98.4951
17668,SAN ANTONIO,78209-4933,TX,29.4246,-98.4951
17667,San Angelo,76906,TX,31.4648,-100.4398
17666,Rowlett,75089,TX,32.9029,-96.5639
17664,ROCKWALL,75032-7920,TX,32.8923,-96.4067
17663,ROCKWALL,75032-7482,TX,32.8923,-96.4067
17660,RICHMOND,77469-2303,TX,29.5822,-95.7608
17659,RICHMOND,77469,TX,29.5822,-95.7608
17658,RICHMOND,77407-3790,TX,29.5822,-95.7608
17656,Richmond,77406,Tx,29.5822,-95.7608
17655,Richardson,75082,TX,32.9482,-96.7297
17654,RED OAK,75154-4728,TX,32.5176,-96.8044
17653,RED OAK,75154-4620,TX,32.5176,-96.8044
17652,Powderly,75473-3713,TX,33.8112,-95.5244
17651,PORTLAND,78374-2402,TX,27.8768,-97.3234
17650,PORTLAND,78374-1915,TX,27.8768,-97.3234
17649,Plano,75075-7712,TX,33.0137,-96.6925
17648,PLANO,75024-7560,TX,33.0137,-96.6925
17647,PFLUGERVILLE,78660-8022,TX,30.4394,-97.62
17646,PASADENA,77506-4967,TX,29.6911,-95.2091
17644,PASADENA,77504-3137,TX,29.6911,-95.2091
17643,PARIS,75460-4792,TX,33.6618,-95.5555
17642,PAMPA,79065-2901,TX,35.5362,-100.9599
17640,NOLANVILLE,76559-4653,TX,31.0788,-97.6056
17639,NEW ULM,78950-2221,TX,29.8922,-96.4902
17637,New Braunfels,78132-4634,TX,29.7026,-98.1256
17636,MOUNTAIN CITY,78610-9237,TX,30.0381,-97.8909
17634,MONTGOMERY,77316-2811,TX,30.3883,-95.6963
17633,MISSOURI CITY,77459-4574,TX,29.6186,-95.5377
17631,MISSOURI CITY,77459-2613,TX,29.6186,-95.5377
17630,MISSION,78572-8952,TX,26.2159,-98.3253
17629,MIDLOTHIAN,76065-4582,TX,32.4824,-96.9944
17628,Meyersville,77974,Tx,28.88,-97.27
17625,MEADOWLAKES,78654-7008,TX,,
17624,MCKINNEY,75070-2964,TX,33.1976,-96.6154
17623,McKinney,75070,TX,33.1976,-96.6154
17621,McAllen,78501,tx,26.2044,-98.2301
17620,MAGNOLIA,77355-6284,TX,30.2094,-95.7508
17619,LUFKIN,75904-7287,TX,31.3386,-94.7289
17618,LIVE OAK,78233-2563,TX,,
17616,LEWISVILLE,75077-2428,TX,33.0462,-96.9942
17615,LEWISVILLE,75067-6715,TX,33.0462,-96.9942
17614,LEAGUE CITY,77573-3076,TX,29.5075,-95.0949
17613,LAREDO,78045-6604,TX,27.5061,-99.5089
17612,LAKEWAY,78738-1141,TX,30.3645,-97.9875
17611,KYLE,78640-8813,TX,29.9893,-97.8772
17609,KIRBYVILLE,75956-5205,TX,30.6605,-93.8927
17608,KINGWOOD,77339-2607,TX,30.0497,-95.1846
17604,KATY,77494-6175,TX,29.7858,-95.8244
17603,KATY,77494-4892,TX,29.7858,-95.8244
17602,KATY,77494-3992,TX,29.7858,-95.8244
17601,KATY,77449-4954,TX,29.7858,-95.8244
17600,KATY,77449-2640,TX,29.7858,-95.8244
17597,Katy,77449,TX,29.7858,-95.8244
17596,IRVING,75063-8071,TX,32.814,-96.9489
17595,IRVING,75063-7205,TX,32.814,-96.9489
17594,IRVING,75061-8032,TX,32.814,-96.9489
17593,IRVING,75038-6438,TX,32.814,-96.9489
17591,IOWA PARK,76367-3006,TX,33.9515,-98.6687
17590,HURST,76053-3921,TX,32.8235,-97.1706
17589,HUMBLE,77396-1572,TX,29.9988,-95.2622
17588,Hudson Oaks,76087-8846,TX,32.7571,-97.7067
17585,HOUSTONHouston,77062,TX,,
17584,Houston,77094,tx,29.7589,-95.3677
17582,HOUSTON,77090-1230,TX,29.7589,-95.3677
17581,HOUSTON,77084-1624,TX,29.7589,-95.3677
17580,HOUSTON,77080-3807,TX,29.7589,-95.3677
17579,HOUSTON,77079-4076,TX,29.7589,-95.3677
17578,HOUSTON,77069-1121,TX,29.7589,-95.3677
17576,HOUSTON,77057-4407,TX,29.7589,-95.3677
17574,HOUSTON,77056-3733,TX,29.7589,-95.3677
17573,HOUSTON,77043-2804,TX,29.7589,-95.3677
17572,HOUSTON,77042-2614,TX,29.7589,-95.3677
17571,HOUSTON,77040-6024,TX,29.7589,-95.3677
17569,HOUSTON,77036-5940,TX,29.7589,-95.3677
17567,HOUSTON,77025-5209,TX,29.7589,-95.3677
17566,HOUSTON,77025-4026,TX,29.7589,-95.3677
17564,HOUSTON,77025-2401,TX,29.7589,-95.3677
17562,HOUSTON,77017-5217,TX,29.7589,-95.3677
17561,HOUSTON,77008-7060,TX,29.7589,-95.3677
17560,Houston,77006-4013,TX,29.7589,-95.3677
17557,HOUSTON,77004-7995,TX,29.7589,-95.3677
17556,HOUSTON,77004-6834,TX,29.7589,-95.3677
17555,HONDO,78861-5501,TX,29.3474,-99.1412
17554,Hewitt,76643-3568,TX,31.4624,-97.1958
17553,HENDERSON,75652-3023,TX,32.1532,-94.7994
17552,HELOTES,78023-4236,TX,29.5628,-98.687
17551,HARLINGEN,78550-9011,TX,26.1906,-97.6961
17550,HALTOM CITY,76117-3526,TX,32.7996,-97.2692
17549,Groom,79039,TX,35.2037,-101.1068
17548,GRANBURY,76049-5227,TX,32.4421,-97.7942
17547,GEORGETOWN,78626-7328,TX,30.6327,-97.6772
17545,GARLAND,75040-1069,TX,32.9126,-96.6389
17542,GALVESTON,77551-1520,TX,29.2993,-94.7946
17540,GALVESTON,77550,TX,29.2993,-94.7946
17538,GAINESVILLE,76240-9562,TX,33.6259,-97.1333
17537,FULSHEAR,77441-1662,TX,29.6903,-95.8996
17536,Friendswood,77546,TX,29.5294,-95.201
17535,FORT WORTH,76244-7256,TX,32.7532,-97.3327
17534,FORT WORTH,76155-2001,TX,32.7532,-97.3327
17531,FORT WORTH,76137-6625,TX,32.7532,-97.3327
17530,FORT WORTH,76132-4426,TX,32.7532,-97.3327
17528,FORT WORTH,76111-2924,TX,32.7532,-97.3327
17527,FORT WORTH,76107-4025,TX,32.7532,-97.3327
17526,FORT WORTH,76103-1334,TX,32.7532,-97.3327
17525,FLOWER MOUND,75028-1817,TX,33.0146,-97.097
17524,Flint,75762,TX,32.204,-95.3486
17523,Fairview,75069-1953,TX,,
17522,FAIRFIELD,75840-5126,TX,31.7244,-96.1649
17521,EULESS,76039-8304,TX,32.8371,-97.082
17520,ELMENDORF,78112-6038,TX,29.2561,-98.3328
17519,"El Paso,",79904-3010,TX,31.8064,-106.2221
17517,EL PASO,79936-3965,TX,31.8064,-106.2221
17516,El Paso,79930,Tx,31.8064,-106.2221
17515,EL PASO,79912-3324,TX,31.8064,-106.2221
17514,EL PASO,79912-1742,TX,31.8064,-106.2221
17513,East Bernard,77435,TX,29.5311,-96.0711
17512,DRIFTWOOD,78619-5804,TX,30.123,-98.0308
17511,DICKINSON,77539-3312,TX,29.4608,-95.0513
17510,DESOTO,75115-5096,TX,32.6045,-96.8561
17509,DESOTO,75115-4322,TX,32.6045,-96.8561
17508,Denton,76209,TX,33.215,-97.1331
17507,DENTON,76203-5017,TX,33.215,-97.1331
17506,DECATUR,76234-3219,TX,33.2343,-97.5861
17505,DAYTON,77535-2002,TX,30.0466,-94.8852
17504,Dallas,75287,TX,32.7763,-96.7969
17503,DALLAS,75254-2711,TX,32.7763,-96.7969
17502,DALLAS,75230-5057,TX,32.7763,-96.7969
17501,Dallas,75230-4139,TX,32.7763,-96.7969
17500,DALLAS,75230-3459,TX,32.7763,-96.7969
17499,DALLAS,75229-4101,TX,32.7763,-96.7969
17498,DALLAS,75225-4020,TX,32.7763,-96.7969
17496,Dallas,75225,TX,32.7763,-96.7969
17495,dallas,75220,tx,32.7763,-96.7969
17492,DALLAS,75219-1586,TX,32.7763,-96.7969
17491,DALLAS,75214-2711,TX,32.7763,-96.7969
17490,Dallas,75214,Tx,32.7763,-96.7969
17489,DALLAS,75209-3524,TX,32.7763,-96.7969
17486,DALLAS,75208-4949,TX,32.7763,-96.7969
17483,Dallas,75206,TX,32.7763,-96.7969
17481,DALLAS,75204-2618,TX,32.7763,-96.7969
17480,DALLAS,75201-2425,TX,32.7763,-96.7969
17475,CYPRESS,77433-0289,TX,29.9691,-95.6972
17472,Corpus Christi,78418-6013,TX,27.8003,-97.3956
17470,CORPUS CHRISTI,78412-3816,TX,27.8003,-97.3956
17469,COPPELL,75019-7512,TX,32.9553,-97.0156
17468,CONROE,77302-5513,TX,30.3119,-95.4561
17466,Colleyville,76034,TX,32.881,-97.155
17464,CELINA,75009-3821,TX,33.3246,-96.7844
17463,CEDAR PARK,78613-3996,TX,30.5052,-97.8203
17462,CEDAR PARK,78613-3213,TX,30.5052,-97.8203
17461,CARROLLTON,75010-1168,TX,33.001,-96.8922
17460,CAMP VERDE,78010-3538,TX,,
17459,BOERNE,78015-4948,TX,29.7947,-98.732
17458,BELTON,76513-5609,TX,31.056,-97.4645
17457,BELLVILLE,77418-9612,TX,29.9502,-96.2572
17456,BELLVILLE,77418-3721,TX,29.9502,-96.2572
17455,BELLAIRE,77401-5318,TX,29.7058,-95.4588
17454,Bedford,76022,tx,32.844,-97.1431
17453,BEAUMONT,77713-9216,TX,30.086,-94.1018
17451,BASTROP,78602-4654,TX,30.1105,-97.3153
17450,Austin,78754,TX,30.2711,-97.7437
17449,Austin,78751,TX,30.2711,-97.7437
17448,AUSTIN,78749-1127,TX,30.2711,-97.7437
17447,AUSTIN,78748-1216,TX,30.2711,-97.7437
17446,AUSTIN,78739-2098,TX,30.2711,-97.7437
17444,AUSTIN,78734,TX,30.2711,-97.7437
17443,AUSTIN,78733-4204,TX,30.2711,-97.7437
17442,AUSTIN,78732-6119,TX,30.2711,-97.7437
17440,AUSTIN,78732-2479,TX,30.2711,-97.7437
17438,AUSTIN,78732-2266,TX,30.2711,-97.7437
17436,AUSTIN,78730-4902,TX,30.2711,-97.7437
17434,AUSTIN,78728-7018,TX,30.2711,-97.7437
17433,AUSTIN,78728-6975,TX,30.2711,-97.7437
17432,AUSTIN,78728-4372,TX,30.2711,-97.7437
17431,AUSTIN,78704-4218,TX,30.2711,-97.7437
17430,AUSTIN,78701-4254,TX,30.2711,-97.7437
17429,AUBREY,76227-4495,TX,33.3043,-96.9861
17428,Arlington,76015,TX,32.7356,-97.1071
17427,ARLINGTON,76012,TX,32.7356,-97.1071
17426,Arlington,76006-7447,TX,32.7356,-97.1071
17425,ARLINGTON,76002-3070,TX,32.7356,-97.1071
17423,AMARILLO,79124-4971,TX,35.2072,-101.8338
17422,AMARILLO,79119-7307,TX,35.2072,-101.8338
17420,AMARILLO,79109-3941,TX,35.2072,-101.8338
17419,Amarillo,79109-3220,TX,35.2072,-101.8338
17418,Amarillo,79103,Tx,35.2072,-101.8338
17416,Allen,75002,TX,33.1032,-96.6706
17415,Aledo,76008,TX,32.696,-97.6022
17414,Abilene,79606-3584,TX,32.4465,-99.7333
17412,ABILENE,79602-1816,TX,32.4465,-99.7333
17411,WINCHESTER,37398-1414,TN,35.186,-86.1118
17410,TULLAHOMA,37388-5327,TN,35.362,-86.2094
17409,Thompsons Station,37179,TN,35.802,-86.9114
17408,SODDY DAISY,37379-4234,TN,35.2887,-85.1666
17406,SMYRNA,37167-2658,TN,35.9828,-86.5186
17405,SHELBYVILLE,37160-5560,TN,35.4834,-86.4603
17404,Sewanee,37375,TN,35.2031,-85.9211
17403,Pulaski,38478,TN,35.1998,-87.0308
17402,paris,38242,tn,36.302,-88.3267
17400,OLD HICKORY,37138-1366,TN,36.2598,-86.6478
17398,Oak Ridge,37830,TN,36.0104,-84.2696
17397,NORMANDY,37360-7906,TN,35.452,-86.2601
17396,NIOTA,37826-2446,TN,35.5134,-84.5452
17394,Nashville,37220,TN,36.1622,-86.7744
17392,NASHVILLE,37215-2501,TN,36.1622,-86.7744
17391,NASHVILLE,37215-1712,TN,36.1622,-86.7744
17389,NASHVILLE,37214-4251,TN,36.1622,-86.7744
17388,Nashville,37211-2648,TN,36.1622,-86.7744
17387,NASHVILLE,37205-3438,TN,36.1622,-86.7744
17386,Nashville,37204-4020,TN,36.1622,-86.7744
17385,NASHVILLE,37204-2524,TN,36.1622,-86.7744
17384,MURFREESBORO,37129-0222,TN,35.846,-86.392
17383,MT JULIET,37122-1521,TN,,
17382,Memphis,38125-4122,TN,35.149,-90.0516
17381,MEMPHIS,38117-2535,TN,35.149,-90.0516
17379,LOUISVILLE,37777-3045,TN,35.8217,-84.048
17377,Loudon,37774-2175,TN,35.7329,-84.3338
17376,LEBANON,37090-8823,TN,36.2081,-86.2905
17375,LA VERGNE,37086-2041,TN,36.0156,-86.5819
17374,KODAK,37764-2154,TN,35.9745,-83.6268
17373,KNOXVILLE,37932-1940,TN,35.9604,-83.921
17372,KNOXVILLE,37932-1041,TN,35.9604,-83.921
17371,KNOXVILLE,37922-9420,TN,35.9604,-83.921
17370,KNOXVILLE,37922-6686,TN,35.9604,-83.921
17368,Knoxville,37920,tn,35.9604,-83.921
17367,Knoxville,37919,TN,35.9604,-83.921
17365,KINGSTON,37763-4858,TN,35.8809,-84.5085
17364,Kingsport,37663,TN,36.5484,-82.5618
17362,JOHNSON CITY,37601-4904,TN,36.3134,-82.3535
17361,JACKSON,38305-8552,TN,35.6145,-88.8139
17360,JACKSON,38301-6223,TN,35.6145,-88.8139
17359,HUNTINGDON,38344-5416,TN,36.0006,-88.4281
17358,HIXSON,37343-5728,TN,35.1406,-85.2327
17357,HERMITAGE,37076-5604,TN,36.1962,-86.6225
17356,HENDERSONVILLE,37075-8796,TN,36.3048,-86.62
17354,HENDERSONVILLE,37075-6401,TN,36.3048,-86.62
17353,HENDERSONVILLE,37075-5325,TN,36.3048,-86.62
17351,HENDERSONVILLE,37075-4594,TN,36.3048,-86.62
17350,Goodlettsville,37072-9708,TN,36.3231,-86.7133
17349,Germantown,38138-1500,TN,35.0868,-89.8101
17348,FRANKLIN,37064-5712,TN,35.9252,-86.8689
17347,CROSSVILLE,38571-0762,TN,35.949,-85.0269
17346,CROSSVILLE,38558-2856,TN,35.949,-85.0269
17345,COLLIERVILLE,38017-3701,TN,35.042,-89.6645
17344,Clarksville,37043-4536,TN,36.5286,-87.3099
17343,CHATTANOOGA,37419-1920,TN,35.0456,-85.3097
17341,CHATTANOOGA,37415-3596,TN,35.0456,-85.3097
17340,BRENTWOOD,37027-5720,TN,36.0326,-86.7825
17339,BLOUNTVILLE,37617-5358,TN,36.5332,-82.3268
17338,BARTLETT,38134-2836,TN,35.2045,-89.874
17337,Antioch,37013,tn,36.0601,-86.6722
17334,Webster,77598,Texas,29.5377,-95.1183
17333,Weatherford,76086,Texas,32.759,-97.7971
17331,WACO,76708-2373,TEXAS,31.5493,-97.1467
17330,TRINITY,75862-5733,TEXAS,30.9452,-95.3755
17329,The Colony,75056,Texas,33.089,-96.8864
17325,Spring,77379,Texas,30.0799,-95.4173
17324,Sherman,75092-4532,Texas,33.636,-96.6098
17323,San Marcos,78666,Texas,29.8826,-97.9406
17321,San Antonio,78233-5835,Texas,29.4246,-98.4951
17320,Plano,75093,Texas,33.0137,-96.6925
17317,PEARLAND,77584-9149,TEXAS,29.564,-95.2864
17315,PEARLAND,77584-8720,TEXAS,29.564,-95.2864
17314,PASADENA,77505-4344,Texas,29.6911,-95.2091
17313,NORTH RICHLAND HILLS,76180-8148,TEXAS,32.8343,-97.2289
17312,McKinney,75071,Texas,33.1976,-96.6154
17311,Lewisville,75056,Texas,33.0462,-96.9942
17309,LEANDER,78641-8503,TEXAS,30.5788,-97.8531
17307,Kingwood,77345,Texas,30.0497,-95.1846
17306,Johnson City,78636,Texas,30.2769,-98.412
17303,Irving,75038,Texas,32.814,-96.9489
17302,HOUSTON,77095-2792,TEXAS,29.7589,-95.3677
17301,HOUSTON,77092-2608,TEXAS,29.7589,-95.3677
17299,HOUSTON,77078-3105,TEXAS,29.7589,-95.3677
17298,HOUSTON,77055-6665,TEXAS,29.7589,-95.3677
17297,HOUSTON,77053-4607,TEXAS,29.7589,-95.3677
17295,Houston,77024,Texas,29.7589,-95.3677
17293,Houston,77007,Texas,29.7589,-95.3677
17291,HOUSTON,77003-4502,TEXAS,29.7589,-95.3677
17290,HENDERSON,75652-3204,TEXAS,32.1532,-94.7994
17289,HALLETTSVILLE,77964-5468,TEXAS,29.4439,-96.9411
17288,GEORGETOWN,78633-9541,TEXAS,30.6327,-97.6772
17287,georgetown,78628,texas,30.6327,-97.6772
17286,FREDERICKSBURG,78624-2506,TEXAS,30.2752,-98.872
17284,fort worth,76116,texas,32.7532,-97.3327
17282,farmers branch,75234-5061,TEXAS,32.9265,-96.8961
17279,EL PASO,79930-1113,TEXAS,31.8064,-106.2221
17278,Dripping Springs,78620,Texas,30.1902,-98.0867
17277,DEVINE,78016-2409,TEXAS,29.14,-98.9053
17274,dallas,75216,Texas,32.7763,-96.7969
17272,Cypress,77429,Texas,29.9691,-95.6972
17268,COLLEGE STATION,77845-8953,TEXAS,30.6263,-96.3347
17267,CIBOLO,78108-4304,TEXAS,29.5616,-98.227
17266,CEDAR PARK,78613-7836,TEXAS,30.5052,-97.8203
17265,Cedar Park,78613,Texas,30.5052,-97.8203
17263,CANTON,75103-8388,TEXAS,32.5565,-95.8633
17262,Buda,78610,Texas,30.0852,-97.8403
17259,BOERNE,78006-7968,TEXAS,29.7947,-98.732
17256,AUSTIN,78759-6602,TEXAS,30.2711,-97.7437
17255,Signal Mountain,37377,Tennessee,35.1226,-85.3438
17254,POWELL,37849-3357,TENNESSEE,36.0317,-84.028
17253,Nashville,37204,Tennessee,36.1622,-86.7744
17252,Knoxville,37920-5227,Tennessee,35.9604,-83.921
17251,Knoxville,37909,Tennessee,35.9604,-83.921
17250,North Augusta,29841,South Carolina,33.5018,-81.9651
17248,CONWAY,29526-8910,SOUTH CAROLINA,33.836,-79.0478
17247,YANKTON,57078-6745,SD,42.8712,-97.3971
17245,WENTWORTH,57075-6913,SD,43.9972,-96.9642
17244,WATERTOWN,57201-5471,SD,44.8992,-97.1153
17243,STURGIS,57785-2936,SD,44.4097,-103.5091
17242,Sioux Falls,57106,SD,43.55,-96.7003
17239,Sioux Falls,57105,SD,43.55,-96.7003
17238,Burbank,57010,SD,42.7453,-96.8292
17237,BIG STONE CITY,57216-8209,SD,45.2916,-96.4628
17236,ABERDEEN,57401-6939,SD,45.465,-98.4878
17235,WEST UNION,29696-1323,SC,34.7598,-83.0429
17234,WEST COLUMBIA,29170-2764,SC,33.9935,-81.074
17233,TRAVELERS REST,29690-9277,SC,34.9676,-82.4435
17232,TAYLORS,29687-7122,SC,34.9204,-82.2962
17231,TAYLORS,29687,SC,34.9204,-82.2962
17230,SUMMERVILLE,29485-8440,SC,33.0185,-80.1756
17229,SUMMERVILLE,29483-8054,SC,33.0185,-80.1756
17228,Spartanburg,29302,SC,34.9498,-81.932
17227,Spartanburg,29301,SC,34.9498,-81.932
17226,SIMPSONVILLE,29681-4764,SC,34.7371,-82.2543
17223,Simpsonville,29681,SC,34.7371,-82.2543
17222,SAINT HELENA ISLAND,29920-7413,SC,32.3869,-80.5607
17221,Roebuck,29376,SC,34.8796,-81.9662
17220,Rock Hill,29730,SC,34.9249,-81.0251
17219,PROSPERITY,29127-7182,SC,34.2093,-81.5332
17218,North Charleston,29420-8974,SC,32.8546,-79.9748
17217,MYRTLE BEACH,29579-6678,SC,33.6956,-78.89
17214,Mt. Pleasant,29466,SC,,
17213,MAULDIN,29662-3256,SC,34.7787,-82.3101
17212,Lyman,29365,SC,34.9482,-82.1273
17211,LANCASTER,29720-9484,SC,34.7204,-80.7709
17206,JOHNS ISLAND,29455-6716,SC,32.7024,-80.0481
17205,IVA,29655-8748,SC,34.3065,-82.6637
17204,HILTON HEAD ISLAND,29928-3132,SC,32.2163,-80.7526
17203,GREER,29650-3937,SC,34.9381,-82.2272
17201,GREENVILLE,29615-4123,SC,34.8514,-82.3985
17198,Greenville,29615,SC,34.8514,-82.3985
17197,GREENVILLE,29609-6516,SC,34.8514,-82.3985
17194,GREENVILLE,29609-5240,SC,34.8514,-82.3985
17193,Fort Mill,29715-8213,SC,35.0074,-80.9451
17191,FLORENCE,29506-2762,SC,34.1984,-79.7672
17190,CONWAY,29526-6324,SC,33.836,-79.0478
17189,COLUMBIA,29229-9387,SC,34.0007,-81.0343
17188,COLUMBIA,29223-3725,SC,34.0007,-81.0343
17187,COLUMBIA,29206-1635,SC,34.0007,-81.0343
17186,COLUMBIA,29201-3334,SC,34.0007,-81.0343
17183,CLOVER,29710-4717,SC,35.1112,-81.2265
17181,CHESTER,29706-3707,SC,34.7049,-81.2143
17180,CHARLESTON,29492-8129,SC,32.7876,-79.9403
17179,charleston,29414,sc,32.7876,-79.9403
17176,CHARLESTON,29412-9546,SC,32.7876,-79.9403
17175,CHARLESTON,29406-5030,SC,32.7876,-79.9403
17174,CASSATT,29032-9200,SC,34.3646,-80.4359
17173,BLYTHEWOOD,29016-7649,SC,34.2143,-80.974
17172,BLUFFTON,29910-9595,SC,32.2371,-80.8604
17171,BLUFFTON,29910-9302,SC,32.2371,-80.8604
17169,BLUFFTON,29910-8837,SC,32.2371,-80.8604
17166,BLUFFTON,29910-4814,SC,32.2371,-80.8604
17165,BLUFFTON,29909-6092,SC,32.2371,-80.8604
17164,BEAUFORT,29902-6132,SC,32.4316,-80.6698
17163,ANDERSON,29625-6458,SC,34.5069,-82.6506
17162,AIKEN,29803-1657,SC,33.5599,-81.722
17160,WYOMING,02898-1225,RI,41.5154,-71.7015
17159,PROVIDENCE,02906-4807,RI,41.824,-71.4128
17158,PORTSMOUTH,02871-1036,RI,41.6023,-71.2503
17157,NORTH SMITHFIELD,02896-7027,RI,41.9668,-71.5495
17155,NORTH PROVIDENCE,02904-4716,RI,41.8501,-71.4662
17154,MIDDLETOWN,02842-5285,RI,41.5457,-71.2914
17153,JAMESTOWN,02835-1031,RI,41.497,-71.3673
17152,CRANSTON,02920-5161,RI,41.781,-71.4371
17148,cranston,2920,ri,41.781,-71.4371
17147,Providence,2908,Rhode Island,41.824,-71.4128
17146,PORTSMOUTH,02871-3507,RHODE ISLAND,41.6023,-71.2503
17144,CRANSTON,02921-2921,RHODE ISLAND,41.781,-71.4371
17142,JUNEAU,99802,ALASKA,58.3019,-134.4197
17140,Homer,99603,Alaska,59.6441,-151.5401
17139,JUNEAU,99802,ALASKA,58.3019,-134.4197
17138,Homer,99603,Alaska,59.6441,-151.5401
17135,Wilmington,19810,Delaware,39.7459,-75.5466
17134,NEWARK,19711-3104,DE,39.6852,-75.7508
17133,Sewickley,15143,Pennsylvania,40.5365,-80.1845
17131,MILLVILLE,17846-8948,PENNSYLVANIA,41.1204,-76.5299
17128,Millerton,16936,Pennsylvania,41.9834,-76.9386
17126,HOMESTEAD,15120,PENNSYLVANIA,40.4059,-79.912
17125,EBENSBURG,15931-1428,PENNSYLVANIA,40.4851,-78.7247
17124,COATESVILLE,19320-2133,PENNSYLVANIA,39.9832,-75.8238
17123,BETHLEHEM,18017-8748,PENNSYLVANIA,40.6179,-75.3787
17122,Whitehall,18052,Pa.,40.6356,-75.476
17120,Springfield,19064,Pa.,39.9307,-75.3202
17119,North Wales,19454,Pa.,40.2109,-75.2782
17118,ZIONSVILLE,18092-2341,PA,40.4798,-75.5052
17117,ZELIENOPLE,16063-3215,PA,40.7958,-80.1371
17115,YOUNGWOOD,15697-1207,PA,40.2403,-79.5767
17114,York,17403,PA,39.9624,-76.7274
17111,YARDLEY,19067-3478,PA,40.2457,-74.846
17110,Yardley,19067,PA,40.2457,-74.846
17109,WILLOW GROVE,19090-2309,PA,40.144,-75.1157
17107,WHITE OAK,15131-2115,PA,40.3376,-79.8092
17105,WEXFORD,15090-7446,PA,40.6265,-80.0559
17102,WEST NEWTON,15089,PA,40.2098,-79.767
17101,West Chester,19382,Pa,39.9597,-75.606
17100,West Chester,19380-1884,PA,39.9597,-75.606
17097,West Chester,19380,PA,39.9597,-75.606
17096,WEATHERLY,18255-1120,PA,40.9418,-75.8296
17095,WAYNE,19087-2728,PA,40.044,-75.3879
17094,WARWICK,18974-3819,PA,,
17092,VALLEY FORGE,19481,PA,40.0969,-75.47
17091,UPPER CHICHESTER,19014-3341,PA,39.8384,-75.4405
17090,UNIONTOWN,15401-6831,PA,39.9001,-79.7164
17088,TURTLE CREEK,15145-1149,PA,40.4059,-79.8251
17086,STRABANE,15363-9605,PA,40.2509,-80.1978
17085,STEWARTSTOWN,17363,PA,39.7537,-76.5914
17084,STATE COLLEGE,16801-4539,PA,40.794,-77.8607
17083,SOUTHAMPTON,18966-4349,PA,40.1743,-75.0438
17082,SIGEL,15860-3927,PA,41.2751,-79.1131
17081,SCRANTON,18508-1033,PA,41.4087,-75.6621
17080,SCHELLSBURG,15559-7932,PA,40.049,-78.6442
17079,Royersford,19468,pa,40.1843,-75.538
17078,RICHBORO,18954-1616,PA,40.2151,-75.0107
17076,RICHBORO,18954-1308,PA,40.2151,-75.0107
17075,REINHOLDS,17569-9367,PA,40.2668,-76.1155
17073,READING,19606-9175,PA,40.3353,-75.9279
17071,READING,19606-1410,PA,40.3353,-75.9279
17070,QUAKERTOWN,18951-5822,PA,40.4418,-75.3416
17069,PLUM,15239-2229,PA,40.5003,-79.7495
17068,PLEASANT GAP,16823-9629,PA,,
17065,Pittsburgh,15243-1721,PA,40.4417,-79.9901
17064,PITTSBURGH,15239-2345,PA,40.4417,-79.9901
17063,PITTSBURGH,15237-1436,PA,40.4417,-79.9901
17062,PITTSBURGH,15217-1406,PA,40.4417,-79.9901
17061,Pittsburgh,15215,PA,40.4417,-79.9901
17060,PITTSBURGH,15207-2152,PA,40.4417,-79.9901
17059,Pittsburgh,15203-1634,PA,40.4417,-79.9901
17058,PITTSBURGH,15201-2860,PA,40.4417,-79.9901
17054,PHOENIXVILLE,19460-6702,PA,40.1304,-75.5149
17053,PHILADELPHIA,19154-3002,PA,40.0115,-75.1327
17052,PHILADELPHIA,19146-4102,PA,40.0115,-75.1327
17051,Philadelphia,19145-1925,PA,40.0115,-75.1327
17050,PHILADELPHIA,19143-3414,PA,40.0115,-75.1327
17049,PHILADELPHIA,19134-5311,PA,40.0115,-75.1327
17048,PHILADELPHIA,19134-1334,PA,40.0115,-75.1327
17047,PHILADELPHIA,19128,PA,40.0115,-75.1327
17046,PHILADELPHIA,19123-3187,PA,40.0115,-75.1327
17045,Philadelphia,19116,PA,40.0115,-75.1327
17044,philadelphia,19111,pa,40.0115,-75.1327
17043,PHILADELPHIA,19106-1225,PA,40.0115,-75.1327
17042,Philadelphia,19104-6190,PA,40.0115,-75.1327
17041,PHILADELPHIA,19104-5096,PA,40.0115,-75.1327
17040,PHILADELPHIA,19104-3287,PA,40.0115,-75.1327
17038,PHILADELPHIA,19103-6591,PA,40.0115,-75.1327
17037,PHILADELPHIA,19103-4324,PA,40.0115,-75.1327
17035,PHILADELPHIA,19102-1733,PA,40.0115,-75.1327
17034,PHILA,19129-1014,PA,,
17033,PHILA,19104-1863,PA,,
17031,PHILA,19103-5778,PA,,
17030,PERKIOMENVILLE,18074-9709,PA,40.3243,-75.478
17029,PERKASIE,18944-1353,PA,40.372,-75.2927
17027,PENNSBURG,18073-1554,PA,40.3909,-75.4921
17026,PALMERTON,18071-1915,PA,40.8015,-75.6102
17025,OAKDALE,15071-3749,PA,40.3981,-80.1856
17024,northampton,18067,pa,40.6872,-75.4897
17022,NORRISTOWN,19401-3319,PA,40.1215,-75.3399
17019,NEWTOWN,18940-4203,PA,40.2296,-74.9404
17018,NEW CUMBERLAND,17070-3157,PA,40.2323,-76.8847
17017,NEW CASTLE,16105-4915,PA,41.0037,-80.347
17015,NEW CASTLE,16105-2729,PA,41.0037,-80.347
17014,MOUNT JOY,17552-9018,PA,40.1099,-76.5033
17011,Morton,19070,PA,39.9098,-75.3235
17010,MOON TOWNSHIP,15108-2775,PA,,
17007,MOHNTON,19540-8341,PA,40.2859,-75.9844
17006,MILTON,17847-8225,PA,41.0177,-76.8531
17004,MIDDLETOWN,17057-5962,PA,40.1998,-76.7311
17002,MECHANICSBURG,17050-7947,PA,40.2102,-77.0047
17001,Mechanicsburg,17050,PA,40.2102,-77.0047
16999,MCKEESPORT,15135-3012,PA,40.3478,-79.8642
16998,MASONTOWN,15461-1727,PA,39.8467,-79.8998
16997,MANHEIM,17545-9709,PA,40.1637,-76.3952
16996,Manheim,17545-8106,PA,40.1637,-76.3952
16995,MALVERN,19355-3504,PA,40.0362,-75.5139
16992,MADISON TOWNSHIP,18444-6613,PA,,
16990,LOWER GWYNEDD,19002-2066,PA,40.2,-75.23
16989,LOWER GWYNEDD,19002-2037,PA,40.2,-75.23
16988,LOCK HAVEN,17745-8709,PA,41.137,-77.4469
16987,LITTLESTOWN,17340-9525,PA,39.7445,-77.088
16986,LITITZ,17543-9792,PA,40.1571,-76.3072
16985,LITITZ,17543-9354,PA,40.1571,-76.3072
16984,LITITZ,17543-7672,PA,40.1571,-76.3072
16983,LEVITTOWN,19055-1713,PA,40.1551,-74.8288
16982,LEVITTOWN,19054,PA,40.1551,-74.8288
16980,Lebanon,17042-6444,PA,40.3465,-76.4284
16979,LANDISBURG,17040-9341,PA,40.3426,-77.3072
16978,Lancaster,17601-5307,PA,40.0381,-76.3057
16976,Kutztown,19530,PA,40.5173,-75.7774
16971,KUNKLETOWN,18058-8149,PA,40.8479,-75.4482
16969,Knoxville,16928,PA,41.9573,-77.4389
16968,KING OF PRUSSIA,19406-2531,PA,40.0893,-75.396
16967,KENNETT SQUARE,19348-2023,PA,39.8467,-75.7116
16966,Jenkintown,19046,PA,40.0958,-75.1258
16965,JEFFERSON HILLS,15025-3437,PA,40.2912,-79.932
16963,INDIANA,15701-2508,PA,40.6215,-79.1525
16961,HUNTINGDON VALLEY,19006-6923,PA,40.1226,-75.0635
16960,Huntingdon Valley,19006,PA,40.1226,-75.0635
16959,Hummelstown,17036-8840,PA,40.2654,-76.7083
16957,HONEY BROOK,19344-9419,PA,40.0943,-75.9113
16956,HAZLE TOWNSHIP,18202-9644,PA,,
16955,HAVERTOWN,19083-5325,PA,39.9809,-75.3085
16954,Harrisburg,17110,PA,40.2663,-76.8861
16953,Greenville,16125,PA,41.4045,-80.3912
16952,Glenside,19038,PA,40.1023,-75.1521
16951,GLEN MILLS,19342-3409,PA,39.9197,-75.4904
16950,Glen Mills,19342-1105,PA,39.9197,-75.4904
16949,GILBERTSVILLE,19525,PA,40.3201,-75.6102
16948,GIBSONIA,15044-9793,PA,40.6301,-79.9695
16947,FRACKVILLE,17931-1824,PA,40.784,-76.2302
16945,FINLEYVILLE,15332-1511,PA,40.2523,-80.0028
16943,FELTON,17322-8400,PA,39.8542,-76.565
16942,FEASTERVILLE TREVOSE,19053-5970,PA,40.144,-75.0052
16940,EXTON,19341-2785,PA,40.029,-75.6208
16938,ETTERS,17319-9402,PA,40.1487,-76.8192
16936,ERDENHEIM,19038-7855,PA,,
16934,EPHRATA,17522-1668,PA,40.1799,-76.1789
16933,EMMAUS,18049-2317,PA,40.5395,-75.4969
16932,Ellwood City,16117,PA,40.8617,-80.2865
16931,ELIZABETHTOWN,17022-3172,PA,40.1534,-76.6043
16930,EBENSBURG,15931-4375,PA,40.4851,-78.7247
16929,EASTON,18042-3510,PA,40.6916,-75.21
16928,EASTON,18040-8204,PA,40.6916,-75.21
16927,EASTON,18040-6687,PA,40.6916,-75.21
16926,EAST STROUDSBURG,18301-6801,PA,40.9995,-75.1813
16924,EAST MCKEESPORT,15035-1502,PA,40.3831,-79.8064
16923,DUNMORE,18512,PA,41.4198,-75.6324
16921,DOYLESTOWN,18901-3627,PA,40.31,-75.1305
16919,Downingtown,19335,PA,40.0065,-75.7033
16918,DENVER,17517-1498,PA,40.2331,-76.1372
16917,Dallas,18612,PA,41.3362,-75.9633
16916,CROYDON,19021-6909,PA,40.0873,-74.9035
16915,CONSHOHOCKEN,19428-1504,PA,40.0793,-75.3016
16914,COCHRANVILLE,19330-1511,PA,39.8918,-75.9216
16913,COATESVILLE,19320-1198,PA,39.9832,-75.8238
16912,CARLISLE,17013-3423,PA,40.2018,-77.1894
16910,BROCKPORT,15823-1405,PA,41.2598,-78.7267
16909,Bristol,19007,PA,40.1007,-74.8518
16907,Boalsburg,16827,PA,40.7756,-77.7925
16906,Bloomsburg,17815-9574,PA,41.0041,-76.4538
16905,BLOOMSBURG,17815-8410,PA,41.0041,-76.4538
16904,BETHLEHEM,18017-4717,PA,40.6179,-75.3787
16903,BETHLEHEM,18017-3208,PA,40.6179,-75.3787
16902,BERWICK,18603-6442,PA,41.0602,-76.2461
16900,BENSALEM,19020-1801,PA,40.1046,-74.9513
16899,BENSALEM,19020-1217,PA,40.1046,-74.9513
16898,Bala Cynwyd,19004-3102,PA,40.0076,-75.2341
16897,AUDUBON,19403-5620,PA,,
16895,Altoona,16602,PA,40.5187,-78.3947
16893,Adamstown,19501,PA,40.2412,-76.0563
16892,SANDY,97055-8420,OREGON,45.3974,-122.2615
16891,RIDDLE,97469-9772,OREGON,42.951,-123.3642
16889,"Portland,",97229,Oregon,45.5202,-122.6742
16887,Portland,97216,Oregon,45.5202,-122.6742
16885,Portland,97203,Oregon,45.5202,-122.6742
16884,Lake Oswego,97034,Oregon,45.4207,-122.6706
16883,KLAMATH FALLS,97603-8571,OREGON,42.2249,-121.7817
16882,WEST LINN,97068-8637,OR,45.3657,-122.6123
16881,WEST LINN,97068-8272,OR,45.3657,-122.6123
16880,WALDPORT,97394-3027,OR,44.4268,-124.0687
16878,Tigard,97224,OR,45.4307,-122.7719
16877,THE DALLES,97058-3904,OR,45.5946,-121.1787
16875,THE DALLES,97058-2246,OR,45.5946,-121.1787
16873,SWEET HOME,97386-9562,OR,44.3976,-122.7362
16872,springfield,97477,OR,44.0462,-123.022
16871,SOUTH BEACH,97366-9501,OR,44.6123,-124.0487
16869,SISTERS,97759-9811,OR,44.2909,-121.5493
16866,SHADY COVE,97539-3713,OR,42.6107,-122.8125
16863,ROGUE RIVER,97537-9615,OR,42.436,-123.172
16861,REDMOND,97756-7015,OR,44.2726,-121.1739
16859,PORTLAND,97229-4152,OR,45.5202,-122.6742
16858,PORTLAND,97229-1547,OR,45.5202,-122.6742
16856,Portland,97225-4059,OR,45.5202,-122.6742
16855,Portland,97219-8901,OR,45.5202,-122.6742
16852,Portland,97219-3949,OR,45.5202,-122.6742
16851,PORTLAND,97219-3506,OR,45.5202,-122.6742
16850,PORTLAND,97212-5324,OR,45.5202,-122.6742
16849,portland,97212,or,45.5202,-122.6742
16848,Portland,97211,OR,45.5202,-122.6742
16847,PORTLAND,97210-3102,OR,45.5202,-122.6742
16846,PORTLAND,97206-9060,OR,45.5202,-122.6742
16843,OREGON CITY,97045-9299,OR,45.3573,-122.6068
16842,Oregon City,97045-7655,OR,45.3573,-122.6068
16841,OREGON CITY,97045-7088,OR,45.3573,-122.6068
16839,NORTH PLAINS,97133-8350,OR,45.5973,-122.9936
16838,Molalla,97038-7634,OR,45.1473,-122.577
16837,Manzanita,97130,OR,45.7184,-123.9351
16836,LOSTINE,97857-6481,OR,45.4874,-117.4296
16835,LAKE OSWEGO,97035-4333,OR,45.4207,-122.6706
16834,LAKE OSWEGO,97035-2541,OR,45.4207,-122.6706
16833,Lake Oswego,97034,Or,45.4207,-122.6706
16832,LA PINE,97739-7660,OR,43.6704,-121.5036
16830,KLAMATH FALLS,97603-8016,OR,42.2249,-121.7817
16829,Klamath Falls,97603,OR,42.2249,-121.7817
16828,JACKSONVILLE,97530-9878,OR,42.3144,-122.9653
16826,HILLSBORO,97124-6228,OR,45.5229,-122.9898
16825,HILLSBORO,97124,OR,45.5229,-122.9898
16824,Hillsboro,97123,OR,45.5229,-122.9898
16823,HEREFORD,97837-8603,OR,44.4987,-118.0373
16820,Happy Valley,97086,OR,45.4468,-122.5304
16818,GRESHAM,97080-9436,OR,45.5067,-122.4367
16817,GRESHAM,97080,OR,45.5067,-122.4367
16816,GRESHAM,97030-6345,OR,45.5067,-122.4367
16814,FLORENCE,97439-9306,OR,43.9827,-124.0998
16813,EUGENE,97402-1154,OR,44.0505,-123.0951
16812,Eugene,97402,OR,44.0505,-123.0951
16811,CORVALLIS,97330-3679,OR,44.5646,-123.262
16810,Coos Bay,97420,OR,43.3665,-124.2179
16809,CLACKAMAS,97015-7336,OR,45.4104,-122.5661
16808,BEND,97702-1286,OR,44.0582,-121.3153
16807,Bend,97702,OR,44.0582,-121.3153
16806,Bend,97701-7634,OR,44.0582,-121.3153
16805,Bend,97701-7605,OR,44.0582,-121.3153
16804,Bend,97701,OR,44.0582,-121.3153
16803,BEAVERTON,97008-5986,OR,45.4872,-122.8038
16801,Beaverton,97007-5870,OR,45.4872,-122.8038
16800,BEAVERTON,97007-5349,OR,45.4872,-122.8038
16796,BEAVERTON,97006,OR,45.4872,-122.8038
16795,BANDON,97411-7233,OR,43.1189,-124.4083
16794,ASTORIA,97103-3619,OR,46.1879,-123.8313
16793,ASHLAND,97520-9783,OR,42.1972,-122.7154
16792,ASHLAND,97520-1107,OR,42.1972,-122.7154
16791,ALSEA,97324-9717,OR,44.3815,-123.5965
16790,TULSA,74112-7119,OKLAHOMA,36.1012,-95.9251
16789,OKLAHOMA CITY,73170-4710,OKLAHOMA,35.473,-97.5171
16788,Oklahoma City,73162,Oklahoma,35.473,-97.5171
16784,Oklahoma City,73135,Oklahoma,35.473,-97.5171
16782,EDMOND,73012-9562,OKLAHOMA,35.6571,-97.4649
16781,Bixby,74008,Oklahoma,35.942,-95.8833
16780,TULSA,74136-2636,OK,36.1012,-95.9251
16779,TULSA,74132-2858,OK,36.1012,-95.9251
16778,Tulsa,74127-2510,OK,36.1012,-95.9251
16777,TULSA,74112-4136,OK,36.1012,-95.9251
16776,Tulsa,74103,OK,36.1012,-95.9251
16775,TINKER AFB,73145-9142,OK,35.43,-97.42
16774,Tahlequah,74464,Ok,35.9154,-94.97
16773,Oklahoma City,73139,OK,35.473,-97.5171
16771,OKLAHOMA CITY,73120-7425,OK,35.473,-97.5171
16770,OKLAHOMA CITY,73102-5636,OK,35.473,-97.5171
16769,OCHELATA,74051-2136,OK,36.6001,-95.9797
16768,NORMAN,73071-5037,OK,35.2226,-97.4395
16767,Mutual,73853,OK,36.2314,-99.1682
16766,MUSTANG,73064,OK,35.3842,-97.7245
16765,MOORE,73170-7474,OK,35.3395,-97.4867
16764,Marlow,73055,ok,34.6481,-97.9581
16763,Madill,73446,OK,34.0904,-96.7717
16762,LAWTON,73505-6401,OK,34.6087,-98.3903
16761,KREMLIN,73753-0199,OK,36.5473,-97.8314
16759,HEAVENER,74937-7459,OK,34.8893,-94.6008
16758,FORT GIBSON,74434-8703,OK,35.7976,-95.2505
16757,EDMOND,73034-6520,OK,35.6571,-97.4649
16756,Edmond,73034,OK,35.6571,-97.4649
16755,EDMOND,73013-2020,OK,35.6571,-97.4649
16754,EDMOND,73012-6607,OK,35.6571,-97.4649
16753,Edmond,73012-4051,OK,35.6571,-97.4649
16752,Edmond,73012,OK,35.6571,-97.4649
16751,BROKEN ARROW,74014-2331,OK,36.0526,-95.7908
16750,BROKEN ARROW,74012-8465,OK,36.0526,-95.7908
16748,BROKEN ARROW,74011-4283,OK,36.0526,-95.7908
16747,Bluejacket,74333,OK,36.7998,-95.0711
16746,BETHANY,73008-5307,OK,35.5187,-97.6323
16745,Xenia,45385,Ohio,39.6848,-83.9297
16744,Wyoming,45215,Ohio,39.2312,-84.4658
16743,WICKLIFFE,44092-2429,OHIO,41.6053,-81.4534
16742,West Chester,45069,Ohio,39.3303,-84.4083
16739,Sheffield Village,44054-2452,Ohio,,
16738,SEAMAN,45679-9726,OHIO,38.942,-83.5724
16737,Maple Heights,44137,Ohio,41.4153,-81.566
16735,LIMA,45804,OHIO,40.7426,-84.1052
16734,KETTERING,45440-2713,OHIO,39.6895,-84.1688
16732,HUBER HEIGHTS,45424-3404,OHIO,39.8439,-84.1247
16730,HASKINS,43525-9527,OHIO,41.4648,-83.706
16729,Garfield Hts,44125,Ohio,,
16728,DELTA,43515-1315,OHIO,41.5726,-84.0059
16727,DAYTON,45459-1541,OHIO,39.7589,-84.1916
16726,Dayton,45420,Ohio,39.7589,-84.1916
16725,COLUMBUS,43213-2852,OHIO,39.9623,-83.0007
16723,Cleves,45002,Ohio,39.1623,-84.7492
16722,CLEVELAND,44143-3027,OHIO,41.5052,-81.6934
16721,CLEVELAND,44114-4340,OHIO,41.5052,-81.6934
16720,Cincinnati,45248,Ohio,39.1015,-84.5125
16719,Cincinnati,45240,Ohio,39.1015,-84.5125
16718,Cincinnati,45227,Ohio,39.1015,-84.5125
16717,Chesterland,44026,Ohio,41.5223,-81.3379
16716,Carrollton,44615,Ohio,40.5728,-81.0857
16715,athens,45701,Ohio,39.3292,-82.1013
16714,Ashville,43103,Ohio,39.7156,-82.953
16713,Zanesville,43701-1523,OH,39.9403,-82.0132
16712,WOOSTER,44691-8004,OH,40.8051,-81.9351
16711,WOOSTER,44691-4429,OH,40.8051,-81.9351
16710,WILLOUGHBY,44094-5325,OH,41.6398,-81.4065
16709,WESTERVILLE,43081-7570,OH,40.1262,-82.9291
16708,WESTERVILLE,43081-4307,OH,40.1262,-82.9291
16706,WATERFORD,45786-5438,OH,39.5423,-81.6399
16705,Wapakoneta,45895-9118,OH,40.5678,-84.1936
16701,VALLEY CITY,44280-9532,OH,41.2378,-81.9315
16700,Uniontown,44685,OH,40.9759,-81.4073
16698,Twinsburg,44087-1611,OH,41.3126,-81.4401
16697,Toledo,43623,OH,41.6787,-83.5127
16696,Toledo,43612-2548,OH,41.6787,-83.5127
16693,Sylvania,43560,OH,41.7189,-83.713
16692,SPRINGDALE,45246-1510,OH,39.287,-84.4852
16690,SHEFFIELD VILLAGE,44054-2948,OH,,
16689,SHEFFIELD LAKE,44054-1231,OH,41.4875,-82.1015
16688,ROCK CREEK,44084-9352,OH,41.6603,-80.8606
16686,POWELL,43065-6032,OH,40.1578,-83.0752
16685,PORT CLINTON,43452-9067,OH,41.512,-82.9377
16684,Perrysburg,43551,OH,41.557,-83.6272
16682,Orrville,44667,OH,40.8437,-81.764
16681,NORTHWOOD,43619-1815,OH,41.6073,-83.4688
16680,NORTHFIELD,44067-3282,OH,41.3451,-81.5285
16679,NEWCOMERSTOWN,43832-9128,OH,40.2723,-81.606
16678,NEWARK,43055-8633,OH,40.0581,-82.4013
16676,NEW WASHINGTON,44854,OH,40.9623,-82.8544
16674,NEW PHILADELPHIA,44663-3558,OH,40.4898,-81.4457
16672,NEW ALBANY,43054-8917,OH,40.0812,-82.8088
16671,NEVADA,44849-9625,OH,40.8192,-83.1305
16670,MONROE,45050-1564,OH,39.4403,-84.3622
16669,MOGADORE,44260-1375,OH,41.0508,-81.3939
16668,MIDDLETOWN,45044-8746,OH,39.5151,-84.3983
16667,MIDDLEBURG HEIGHTS,44130-4902,OH,41.3614,-81.8129
16666,MIAMISBURG,45342-1183,OH,39.6428,-84.2866
16665,Medina,44256,OH,41.1384,-81.8637
16660,MAYFIELD HTS,44124-3133,OH,,
16659,Maumee,43537,OH,41.5628,-83.6538
16658,MASSILLON,44647-6442,OH,40.7967,-81.5215
16657,massillon,44646,OH,40.7967,-81.5215
16656,Marysville,43040,OH,40.2364,-83.3671
16655,MARION,43302-4202,OH,40.5887,-83.1285
16654,Maineville,45039,OH,39.3151,-84.2209
16653,LITTLE HOCKING,45742-5303,OH,39.2606,-81.6999
16652,LIMA,45805-1102,OH,40.7426,-84.1052
16650,LAGRANGE,44050-9736,OH,41.2373,-82.1199
16648,Howard,43028,OH,40.4076,-82.3268
16647,Hicksville,43526,OH,41.2931,-84.7619
16644,HARTVILLE,44632-9488,OH,40.9637,-81.3312
16643,GROVE CITY,43123-1191,OH,39.8815,-83.093
16642,GAHANNA,43230,OH,40.0195,-82.8791
16641,FORT RECOVERY,45846-9742,OH,40.4128,-84.7764
16639,FINDLAY,45840-2917,OH,41.0414,-83.6504
16638,FAIRBORN,45324-6306,OH,39.8209,-84.0194
16637,DAYTON,45459-1516,OH,39.7589,-84.1916
16634,Dayton,45406-4020,OH,39.7589,-84.1916
16633,CORTLAND,44410-8610,OH,41.3303,-80.7254
16629,Columbus,43235,OH,39.9623,-83.0007
16628,COLUMBUS,43229-3655,OH,39.9623,-83.0007
16627,Columbus,43221,OH,39.9623,-83.0007
16626,COLUMBUS,43220-5059,OH,39.9623,-83.0007
16625,COLUMBUS,43212-3326,OH,39.9623,-83.0007
16624,columbus,43212,OH,39.9623,-83.0007
16623,COLUMBUS,43211-2278,OH,39.9623,-83.0007
16621,COLUMBUS,43204-4962,OH,39.9623,-83.0007
16620,COLUMBUS,43204-2323,OH,39.9623,-83.0007
16619,Columbus,43202-3056,OH,39.9623,-83.0007
16618,columbus,43202,oh,39.9623,-83.0007
16617,COLUMBUS,43201-2305,OH,39.9623,-83.0007
16616,CLINTON,44216-9369,OH,40.9267,-81.6304
16614,Cleveland Heights,44106-2778,OH,41.5201,-81.5562
16613,Cleveland,44119-1347,OH,41.5052,-81.6934
16612,CINCINNATI,45251-4636,OH,39.1015,-84.5125
16611,CINCINNATI,45248-1339,OH,39.1015,-84.5125
16610,CINCINNATI,45245-1112,OH,39.1015,-84.5125
16609,CINCINNATI,45244-3873,OH,39.1015,-84.5125
16607,CINCINNATI,45244-3845,OH,39.1015,-84.5125
16603,CINCINNATI,45241-3276,OH,39.1015,-84.5125
16602,CINCINNATI,45230-2501,OH,39.1015,-84.5125
16601,CINCINNATI,45216-1404,OH,39.1015,-84.5125
16600,CINCINNATI,45202-3528,OH,39.1015,-84.5125
16598,CENTERVILLE,45459-7108,OH,,
16597,CANAL FULTON,44614-8489,OH,40.8898,-81.5976
16596,Brooklyn,44144,OH,41.4398,-81.7406
16595,BROADVIEW HTS,44147,OH,,
16594,BROADVIEW HEIGHTS,44147-3634,OH,41.3139,-81.6851
16593,BROADVIEW HEIGHTS,44147-2985,OH,41.3139,-81.6851
16592,BRILLIANT,43913-1047,OH,40.2648,-80.6262
16591,Blacklick,43004-9771,OH,39.9956,-82.8113
16589,BARBERTON,44203-3729,OH,41.0128,-81.6051
16587,AMHERST,44001-2550,OH,41.3978,-82.2224
16586,ALLIANCE,44601-1284,OH,40.9153,-81.1059
16584,AKRON,44320-1222,OH,41.0831,-81.5185
16583,AKRON,44314-2870,OH,41.0831,-81.5185
16582,AKRON,44313-5304,OH,41.0831,-81.5185
16581,ADA,45810-1646,OH,40.7695,-83.8227
16579,YORKTOWN HEIGHTS,10598-3220,NY,41.2709,-73.7776
16574,YONKERS,10710-4751,NY,40.9312,-73.8987
16573,YONKERS,10710-3523,NY,40.9312,-73.8987
16572,YONKERS,10710-2736,NY,40.9312,-73.8987
16571,YONKERS,10703-1923,NY,40.9312,-73.8987
16570,WYNANTSKILL,12198-8213,NY,42.6967,-73.6443
16569,WOODSIDE,11377-3084,NY,40.7454,-73.9054
16567,WHITE PLAINS,10605-4607,NY,41.034,-73.7629
16566,WESTHAMPTON BEACH,11978-2413,NY,40.8102,-72.643
16565,WEST HARRISON,10604-1903,NY,41.0448,-73.7442
16563,west babylon,11704,NY,40.7182,-73.3543
16561,WELLESLEY ISLAND,13640-9998,NY,44.32,-75.95
16560,WEBSTER,14580-9310,NY,43.2123,-77.43
16558,WEBSTER,14580-1479,NY,43.2123,-77.43
16557,WAVERLY,14892-1421,NY,42.0104,-76.5272
16556,WALDEN,12586-2102,NY,41.5612,-74.1885
16555,WADING RIVER,11792-3103,NY,40.9504,-72.8426
16554,valley stream,11580,ny,40.6643,-73.7085
16553,Valley cottage,10989,Ny,41.1182,-73.9554
16552,TROY,12180-5425,NY,42.7284,-73.6918
16551,TROY,12180-5294,NY,42.7284,-73.6918
16550,TROY,12180,NY,42.7284,-73.6918
16549,TONAWANDA,14150-4616,NY,43.0207,-78.8784
16546,SYRACUSE,13209-1402,NY,43.0481,-76.1474
16545,SYOSSET,11791-4203,NY,40.8262,-73.5021
16542,STONY POINT,10980-3318,NY,41.2295,-73.9871
16539,STATEN ISLAND,10314-3324,NY,40.6428,-74.0749
16536,STATEN ISLAND,10314-3106,NY,40.6428,-74.0749
16535,STATEN ISLAND,10312-3605,NY,40.6428,-74.0749
16533,STATEN ISLAND,10309-2121,NY,40.6428,-74.0749
16532,STATEN ISLAND,10309-1601,NY,40.6428,-74.0749
16531,STATEN ISLAND,10304-5400,NY,40.6428,-74.0749
16529,STATEN ISLAND,10304-4143,NY,40.6428,-74.0749
16528,STATEN ISLAND,10301-3417,NY,40.6428,-74.0749
16527,Springfield Gardens,11413-4058,NY,40.6782,-73.7465
16526,SOUTH HEMPSTEAD,11550-7703,NY,,
16525,Somers,10589,NY,41.3281,-73.6857
16523,Sodus,14551-9643,NY,43.2378,-77.0614
16520,SILVER CREEK,14136,NY,42.5442,-79.1667
16519,SHOKAN,12481-5709,NY,41.9734,-74.2121
16518,SEAFORD,11783-3451,NY,40.6659,-73.4882
16517,Schenectady,12303,NY,42.8142,-73.9396
16516,SAUGERTIES,12477-4744,NY,42.0776,-73.9529
16515,SARATOGA SPRINGS,12866-9170,NY,43.0822,-73.7854
16513,SARATOGA SPRINGS,12866-1307,NY,43.0822,-73.7854
16511,SAINT ALBANS,11412-3211,NY,40.6984,-73.7607
16510,Rouses Point,12979,NY,44.9939,-73.3649
16509,ROSLYN HEIGHTS,11577-1625,NY,40.7887,-73.6474
16506,RONKONKOMA,11779-7353,NY,40.8154,-73.1123
16505,RONKONKOMA,11779-3064,NY,40.8154,-73.1123
16504,Rome,13440,Ny,43.2128,-75.4557
16503,Rockville Centre,11570,NY,40.6587,-73.6412
16500,ROCHESTER,14627-0001,NY,43.1573,-77.6152
16499,ROCHESTER,14622-1113,NY,43.1573,-77.6152
16498,ROCHESTER,14620-2417,NY,43.1573,-77.6152
16497,ROCHESTER,14620-2129,NY,43.1573,-77.6152
16496,ROCHESTER,14620-2122,NY,43.1573,-77.6152
16495,ROCHESTER,14617-4232,NY,43.1573,-77.6152
16494,ROCHESTER,14616-4428,NY,43.1573,-77.6152
16493,ROCHESTER,14609-5645,NY,43.1573,-77.6152
16491,RIDGEWOOD,11385-3504,NY,40.7081,-73.9142
16488,Ridgewood,11385,NY,40.7081,-73.9142
16485,Richmond Hill,11418,NY,40.6994,-73.831
16484,RHINEBECK,12572,NY,41.9269,-73.9127
16483,RENSSELAER,12144-1727,NY,42.6426,-73.7429
16482,REGO PARK,11374-1226,NY,40.73,-73.87
16480,Red Hook,12571-1110,NY,41.9951,-73.8756
16479,Prattsburgh,14873,NY,42.524,-77.2889
16478,Port Washington,11050,NY,40.8257,-73.6982
16477,PORT CHESTER,10573-2711,NY,41.0018,-73.6657
16475,PITTSFORD,14534-3119,NY,43.091,-77.5153
16474,PAWLING,12564-3423,NY,41.562,-73.6026
16473,OSSINING,10562-5704,NY,41.1629,-73.8615
16471,OSSINING,10562-3903,NY,41.1629,-73.8615
16470,Ossining,10562,NY,41.1629,-73.8615
16469,OLEAN,14760-1615,NY,42.0776,-78.4297
16468,Old Bethpage,11804,NY,40.7626,-73.4532
16466,oceanside,11572,ny,40.6387,-73.6401
16464,OAKDALE,11769-1901,NY,40.744,-73.1387
16463,NORWICH,13815-1242,NY,42.5312,-75.5235
16462,NORTHPORT,11768-2313,NY,40.9009,-73.3432
16461,NEW YORK,10280-1026,NY,40.7648,-73.9808
16460,New York,10280,NY,40.7648,-73.9808
16458,NEW YORK,10128-4244,NY,40.7648,-73.9808
16457,NEW YORK,10128-3633,NY,40.7648,-73.9808
16456,New York,10128,NY,40.7648,-73.9808
16455,NEW YORK,10121-0898,NY,40.7648,-73.9808
16454,New York,10112,NY,40.7648,-73.9808
16451,NEW YORK,10075-0691,NY,40.7648,-73.9808
16450,NEW YORK,10069-0510,NY,40.7648,-73.9808
16449,NEW YORK,10065-7510,NY,40.7648,-73.9808
16448,NEW YORK,10044-0242,NY,40.7648,-73.9808
16447,NEW YORK,10035-2720,NY,40.7648,-73.9808
16446,NEW YORK,10033-5339,NY,40.7648,-73.9808
16445,NEW YORK,10033-5002,NY,40.7648,-73.9808
16444,NEW YORK,10033-3433,NY,40.7648,-73.9808
16442,NEW YORK,10033-1755,NY,40.7648,-73.9808
16441,NEW YORK,10032-7916,NY,40.7648,-73.9808
16440,NEW YORK,10032-1234,NY,40.7648,-73.9808
16438,New York,10032,NY,40.7648,-73.9808
16434,New York,10029-6917,NY,40.7648,-73.9808
16433,New York,10028-0139,NY,40.7648,-73.9808
16432,New York,10028,NY,40.7648,-73.9808
16431,NEW YORK,10027-3941,NY,40.7648,-73.9808
16430,NEW YORK,10025,NY,40.7648,-73.9808
16429,NEW YORK,10024-6605,NY,40.7648,-73.9808
16428,NEW YORK,10024-6050,NY,40.7648,-73.9808
16427,NEW YORK,10024-3850,NY,40.7648,-73.9808
16426,New York,10024-3720,NY,40.7648,-73.9808
16425,New York,10024-3719,NY,40.7648,-73.9808
16424,NEW YORK,10024-3407,NY,40.7648,-73.9808
16423,NEW YORK,10024-2605,NY,40.7648,-73.9808
16422,NEW YORK,10024-1242,NY,40.7648,-73.9808
16419,New York,10024,NY,40.7648,-73.9808
16418,NEW YORK,10023-7133,NY,40.7648,-73.9808
16416,New York,10023-6902,NY,40.7648,-73.9808
16415,NEW YORK,10023-1549,NY,40.7648,-73.9808
16414,New York,10023,NY,40.7648,-73.9808
16413,New York,10022,NY,40.7648,-73.9808
16412,NEW YORK,10021-3138,NY,40.7648,-73.9808
16411,NEW YORK,10017-6836,NY,40.7648,-73.9808
16409,NEW YORK,10016-8012,NY,40.7648,-73.9808
16407,NEW YORK,10016-3842,NY,40.7648,-73.9808
16406,NEW YORK,10011-5414,NY,40.7648,-73.9808
16405,NEW YORK,10011-1435,NY,40.7648,-73.9808
16404,NEW YORK,10011,NY,40.7648,-73.9808
16403,NEW YORK,10009-6921,NY,40.7648,-73.9808
16402,NEW YORK,10002-3927,NY,40.7648,-73.9808
16401,NEW YORK,10002-1592,NY,40.7648,-73.9808
16400,NEW YORK,10001-4246,NY,40.7648,-73.9808
16399,NEW WINDSOR,12553-2100,NY,41.4768,-74.0238
16398,NEW ROCHELLE,10804-4406,NY,40.9115,-73.7826
16395,new rochelle,10804,ny,40.9115,-73.7826
16394,new rochelle,10801,ny,40.9115,-73.7826
16393,NEW CITY,10956-1433,NY,41.147,-73.9903
16392,Montgomery,12549,NY,41.5276,-74.2368
16389,MINEOLA,11501-1102,NY,40.7493,-73.6407
16387,MERRICK,11566-5134,NY,40.6629,-73.5515
16386,MEDINA,14103-1846,NY,43.2201,-78.387
16385,Manlius,13104-1502,NY,43.002,-75.9769
16384,MANHASSET,11030-2503,NY,40.7979,-73.6996
16383,LOUDONVILLE,12211-2203,NY,,
16380,LONG ISLAND CITY,11109,NY,40.7455,-73.9485
16379,Long Island City,11102,NY,40.7455,-73.9485
16378,LONG BEACH,11561-4304,NY,40.5885,-73.6579
16377,LONG BEACH,11561-4059,NY,40.5885,-73.6579
16376,Littleneck,11362,NY,40.762,-73.7382
16374,LINDENHURST,11757-5025,NY,40.6868,-73.3735
16372,Lake George,12845,NY,43.426,-73.7122
16370,KEW GARDENS,11415-1150,NY,40.7139,-73.8307
16369,Keeseville,12944,NY,44.505,-73.4801
16368,JERICHO,11753-1451,NY,40.792,-73.5398
16367,JAMESVILLE,13078-9588,NY,42.992,-76.0716
16366,Jamaica ny,11434,NY,,
16365,JAMAICA,11434,NY,40.6915,-73.8057
16364,JACKSON HEIGHTS,11372-5984,NY,40.75,-73.89
16363,JACKSON HEIGHTS,11372-1670,NY,40.75,-73.89
16362,Ithaca,14850,NY,42.4396,-76.4968
16361,HUNTINGTON STATION,11746-3117,NY,40.8534,-73.4115
16360,HUNTINGTON STATION,11746-2815,NY,40.8534,-73.4115
16359,Huntington,11743,ny,40.8682,-73.4257
16358,HOLBROOK,11741-1117,NY,40.8123,-73.0784
16357,Highland Mills,10930-5100,NY,41.347,-74.1263
16356,HICKSVILLE,11801-3237,NY,40.7684,-73.5251
16354,Hicksville,11801,Ny,40.7684,-73.5251
16353,HEMPSTEAD,11550-3521,NY,40.7063,-73.6187
16352,HARTSDALE,10530-2526,NY,41.019,-73.7982
16351,HARRISON,10528-1706,NY,40.969,-73.7126
16350,HAMPTON BAYS,11946-3217,NY,40.869,-72.5176
16349,Hamilton,13346,NY,42.8269,-75.5444
16348,GREENLAWN,11740-3006,NY,40.869,-73.3651
16347,GREAT NECK,11024-1543,NY,40.8007,-73.7285
16345,GREAT NECK,11021-3642,NY,40.8007,-73.7285
16344,GREAT NECK,11021-1441,NY,40.8007,-73.7285
16343,GLENS FALLS,12801-2653,NY,43.3097,-73.6441
16342,GLENDALE,11385-6600,NY,,
16341,Gardens,11413,NY,,
16340,FREEVILLE,13068-9715,NY,42.5131,-76.347
16339,FOREST HILLS,11375-6726,NY,40.7227,-73.8479
16338,FOREST HILLS,11375-3167,NY,40.7227,-73.8479
16337,Forest Hills,11375,NY,40.7227,-73.8479
16333,FLUSHING,11367-3122,NY,40.7654,-73.8174
16332,FLUSHING,11355-2214,NY,40.7654,-73.8174
16330,FARMINGDALE,11735-6808,NY,40.7326,-73.4454
16327,FAR ROCKAWAY,11691-5812,NY,40.59,-73.8
16326,FAR ROCKAWAY,11691-1724,NY,40.59,-73.8
16325,Fairport,14450,NY,43.0993,-77.443
16324,ELMONT,11003-3409,NY,40.7009,-73.7129
16323,ELMHURST,11373-7401,NY,40.7366,-73.8784
16322,ELMHURST,11373-3811,NY,40.7366,-73.8784
16321,EAST ISLIP,11730-2106,NY,40.732,-73.1857
16320,East Amherst,14051,NY,43.0184,-78.6967
16319,CORONA,11368-3642,NY,40.747,-73.8601
16318,CORNING,14830-3111,NY,42.1429,-77.0547
16317,COPIAGUE,11726-3325,NY,40.6841,-73.4008
16316,Colden,14033-9631,NY,42.6442,-78.6847
16315,clinton,13323,ny,43.0484,-75.3785
16313,CLIFTON SPRINGS,14432-9734,NY,42.9617,-77.14
16311,CICERO,13039-9394,NY,43.179,-76.0407
16309,CHESTERTOWN,12817,NY,43.6526,-73.801
16308,Cheektowaga,14227-2665,NY,42.9034,-78.7548
16306,Chappaqua,10514-2738,NY,41.1595,-73.7649
16305,Canandaigua,14424-1605,NY,42.8845,-77.2784
16303,BUFFALO,14221-3113,NY,42.9333,-78.877
16302,BROOKLYN,11238-4635,NY,40.6922,-73.9902
16298,BROOKLYN,11238-2533,NY,40.6922,-73.9902
16297,BROOKLYN,11236-5413,NY,40.6922,-73.9902
16295,BROOKLYN,11235-4528,NY,40.6922,-73.9902
16293,BROOKLYN,11235-4404,NY,40.6922,-73.9902
16292,BROOKLYN,11235-2668,NY,40.6922,-73.9902
16287,BROOKLYN,11234-5409,NY,40.6922,-73.9902
16284,Brooklyn,11234-3130,NY,40.6922,-73.9902
16283,BROOKLYN,11230-7600,NY,40.6922,-73.9902
16282,BROOKLYN,11230-7343,NY,40.6922,-73.9902
16281,brooklyn,11230,ny,40.6922,-73.9902
16279,BROOKLYN,11229-2747,NY,40.6922,-73.9902
16278,BROOKLYN,11229-2629,NY,40.6922,-73.9902
16276,BROOKLYN,11226-6518,NY,40.6922,-73.9902
16275,BROOKLYN,11226-6109,NY,40.6922,-73.9902
16274,BROOKLYN,11226-1152,NY,40.6922,-73.9902
16272,BROOKLYN,11222-1517,NY,40.6922,-73.9902
16271,brooklyn,11222,NY,40.6922,-73.9902
16270,Brooklyn,11221,Ny,40.6922,-73.9902
16268,Brooklyn,11220,NY,40.6922,-73.9902
16266,BROOKLYN,11219-4102,NY,40.6922,-73.9902
16265,BROOKLYN,11216-4220,NY,40.6922,-73.9902
16262,BROOKLYN,11216-2809,NY,40.6922,-73.9902
16261,BROOKLYN,11216-1113,NY,40.6922,-73.9902
16260,BROOKLYN,11215,NY,40.6922,-73.9902
16258,Brooklyn,11214,NY,40.6922,-73.9902
16257,BROOKLYN,11211-4009,NY,40.6922,-73.9902
16256,BROOKLYN,11210-4231,NY,40.6922,-73.9902
16255,BROOKLYN,11205-3075,NY,40.6922,-73.9902
16253,BROOKLYN,11204-2346,NY,40.6922,-73.9902
16252,BROOKLYN,11204-2255,NY,40.6922,-73.9902
16250,BROOKLYN,11204,NY,40.6922,-73.9902
16249,BRONX,10473,NY,40.8262,-73.9231
16248,BRONX,10471-1505,NY,40.8262,-73.9231
16247,BRONX,10469-4204,NY,40.8262,-73.9231
16245,bronx,10460,NY,40.8262,-73.9231
16244,BRONX,10456-5747,NY,40.8262,-73.9231
16243,BRONX,10451-6129,NY,40.8262,-73.9231
16242,BROCKPORT,14420-3015,NY,43.2137,-77.9392
16241,Bellmore,11710-4604,NY,40.6687,-73.5271
16240,BAYSIDE,11361-3606,NY,40.7684,-73.7771
16239,BAYSIDE,11361-3525,NY,40.7684,-73.7771
16236,BAYSIDE,11361-2214,NY,40.7684,-73.7771
16235,Bayshore,11706,NY,40.7251,-73.2454
16233,Ballston Spa,12020,NY,43.0009,-73.849
16232,BALLSTON LAKE,12019-9338,NY,42.9117,-73.8682
16230,Baldwinsville,13027,NY,43.1587,-76.3327
16229,BABYLON,11702-1008,NY,40.6957,-73.3257
16227,ASTORIA,11105-2916,NY,40.75,-73.94
16226,AMSTERDAM,12010-6287,NY,42.9434,-74.185
16225,AMITYVILLE,11701-4103,NY,40.679,-73.4171
16224,AMHERST,14228-3327,NY,42.9784,-78.7998
16222,ALTAMONT,12009-3814,NY,42.7006,-74.0337
16221,ALEXANDER,14005-9624,NY,42.9012,-78.2567
16218,ALDEN,14004-9493,NY,42.9001,-78.492
16217,ALBANY,12208-1051,NY,42.6512,-73.755
16216,ALBANY,12208,NY,42.6512,-73.755
16215,ALBANY,12205-4405,NY,42.6512,-73.755
16214,ALBANY,12205,NY,42.6512,-73.755
16213,ADDISON,14801-9284,NY,42.1052,-77.2341
16212,YERINGTON,89447,NV,38.9939,-119.1632
16211,RENO,89523-9081,NV,39.5293,-119.8137
16210,RENO,89521-8364,NV,39.5293,-119.8137
16209,RENO,89521-6348,NV,39.5293,-119.8137
16208,RENO,89512-4712,NV,39.5293,-119.8137
16207,RENO,89509-3502,NV,39.5293,-119.8137
16206,RENO,89509-3216,NV,39.5293,-119.8137
16205,Reno,89509,NV,39.5293,-119.8137
16204,RENO,89506,NV,39.5293,-119.8137
16203,Pahrump,89048,NV,36.2083,-115.9839
16202,NORTH LAS VEGAS,89085,NV,36.2008,-115.1121
16201,North Las Vegas,89084,NV,36.2008,-115.1121
16200,MESQUITE,89027-8801,NV,36.804,-114.0681
16198,LAS VEGAS,89178,NV,36.1663,-115.1492
16193,Las Vegas,89170,NV,36.1663,-115.1492
16191,LAS VEGAS,89169-0319,NV,36.1663,-115.1492
16190,LAS VEGAS,89147-4148,NV,36.1663,-115.1492
16189,LAS VEGAS,89139-7481,NV,36.1663,-115.1492
16188,LAS VEGAS,89135-3266,NV,36.1663,-115.1492
16187,LAS VEGAS,89135-1650,NV,36.1663,-115.1492
16186,LAS VEGAS,89123-1703,NV,36.1663,-115.1492
16185,LAS VEGAS,89121-5786,NV,36.1663,-115.1492
16184,LAS VEGAS,89121-4132,NV,36.1663,-115.1492
16183,LAS VEGAS,89108-3350,NV,36.1663,-115.1492
16182,LAS VEGAS,89103-4201,NV,36.1663,-115.1492
16181,LAS VEGAS,89102-2032,NV,36.1663,-115.1492
16180,Henderson,89044-0499,NV,36.0391,-114.9819
16179,Henderson,89015,NV,36.0391,-114.9819
16178,GARDNERVILLE,89410-5606,NV,38.9413,-119.7496
16177,DAYTON,89403-6358,NV,39.2371,-119.593
16175,DAYTON,89403-3017,NV,39.2371,-119.593
16174,CARSON CITY,89701,NV,39.1638,-119.7674
16173,Boulder City,89006-1588,NV,35.9786,-114.8325
16172,BOULDER CITY,89005-3710,NV,35.9786,-114.8325
16171,BOULDER CITY,89005-1532,NV,35.9786,-114.8325
16170,Mt Holly,28120,North Carolina,35.2982,-81.0159
16169,EMERALD ISLE,28594-2143,NORTH CAROLINA,34.6779,-76.9508
16168,SILVER CITY,88061-4969,NM,32.7725,-108.2794
16164,SANTA FE,87506-4536,NM,35.687,-105.9378
16163,SANTA FE,87501-2335,NM,35.687,-105.9378
16162,PLACITAS,87043-9202,NM,35.307,-106.4247
16161,PEP,88126-9720,NM,,
16160,MIMBRES,88049-8005,NM,,
16159,LOVINGTON,88260-4320,NM,32.944,-103.3486
16157,LOS ALAMOS,87544-3423,NM,35.8585,-106.3172
16156,LA LUZ,88337-9539,NM,32.9779,-105.9419
16153,JAL,88252-0219,NM,32.1132,-103.1935
16152,Hobbs,88242-0715,NM,32.7026,-103.136
16150,HOBBS,88240-2206,NM,32.7026,-103.136
16149,FARMINGTON,87401-9285,NM,36.7304,-108.2089
16148,Farmington,87401,NM,36.7304,-108.2089
16147,CEDAR CREST,87008-9718,NM,35.1075,-106.3728
16146,ALBUQUERQUE,87194-7730,NM,35.0841,-106.651
16145,ALBUQUERQUE,87120-4507,NM,35.0841,-106.651
16144,Albuquerque,87114-5327,NM,35.0841,-106.651
16143,ALBUQUERQUE,87113-1282,NM,35.0841,-106.651
16142,ALBUQUERQUE,87112-1159,NM,35.0841,-106.651
16141,Albuquerque,87111,NM,35.0841,-106.651
16140,ALBUQUERQUE,87110-4734,NM,35.0841,-106.651
16139,Albuquerque,87110,NM,35.0841,-106.651
16138,Woodstown,8098,NJ,39.6515,-75.3282
16136,Willingboro,8046,NJ,40.0279,-74.8691
16135,WILDWOOD,08260-3415,NJ,38.9918,-74.8149
16134,WHARTON,07885-2552,NJ,40.8932,-74.5818
16133,WESTWOOD,07675-2501,NJ,40.9912,-74.0326
16131,West Orange,7052,NJ,40.7987,-74.239
16128,west milford,7480,NJ,41.1312,-74.3674
16127,WENONAH,08090-1319,NJ,39.7946,-75.1488
16126,UNION,07083-8090,NJ,40.6976,-74.2632
16125,TRENTON,08638-3349,NJ,40.2171,-74.7429
16124,TRENTON,08620-9413,NJ,40.2171,-74.7429
16123,TRENTON,08619-3926,NJ,40.2171,-74.7429
16122,TOMS RIVER,08757-5541,NJ,39.9537,-74.198
16121,TOMS RIVER,08757-2731,NJ,39.9537,-74.198
16120,Titusville,8560,NJ,,
16119,TETERBORO,07608-1200,NJ,40.8598,-74.0593
16117,SUMMIT,07901-1536,NJ,40.7182,-74.3592
16116,SUCCASUNNA,07876-1112,NJ,40.8684,-74.6404
16115,STOCKTON,08559-1504,NJ,40.4079,-74.9782
16114,Stockholm,7460,NJ,41.0895,-74.5171
16113,STIRLING,07980-1223,NJ,,
16112,stewartsville,8886,nj,40.6937,-75.111
16110,South orange,7079,Nj,40.7475,-74.2635
16109,South Amboy,8879,NJ,40.4783,-74.2907
16108,SECAUCUS,07094-3610,NJ,40.7899,-74.0567
16107,SECAUCUS,07094-1711,NJ,40.7899,-74.0567
16106,SCOTCH PLAINS,07076-4664,NJ,40.6554,-74.3899
16105,Sayreville,8872,NJ,40.4593,-74.361
16104,RUMSON,07760-1045,NJ,40.3721,-73.999
16103,ROSELLE,07203-1955,NJ,40.66,-74.26
16102,RIVERTON,8077,NJ,40.0115,-75.0149
16101,River vale,7675,NJ,40.9954,-74.0121
16099,RINGWOOD,07456-1018,NJ,41.1134,-74.2454
16098,RIDGEWOOD,07450-5414,NJ,40.9792,-74.1166
16097,RIDGEWOOD,07450-2421,NJ,40.9792,-74.1166
16096,RED BANK,07701-1704,NJ,40.3471,-74.0643
16094,RARITAN,08869-1353,NJ,40.5,-74.86
16093,Princeton,8540,NJ,40.3493,-74.6593
16092,PLEASANTVILLE,08232-1060,NJ,39.3898,-74.524
16091,PITTSTOWN,08867-5155,NJ,,
16086,PISCATAWAY,8854,NJ,40.5463,-74.466
16085,PENNINGTON,08534-3320,NJ,40.3284,-74.7907
16084,PEDRICKTOWN,08067-3613,NJ,39.7589,-75.406
16083,park ridge,7656,nj,41.0376,-74.0407
16081,ORTLEY BEACH,08751-1611,NJ,,
16080,NORTHFIELD,08225-1230,NJ,39.3704,-74.5502
16079,NORTH PLAINFIELD,07060-4147,NJ,40.6301,-74.4274
16078,North Caldwell,7006,NJ,40.8648,-74.2582
16076,NORTH BRUNSWICK,08902-4568,NJ,40.454,-74.482
16073,NORTH BRUNSWICK,08902-4268,NJ,40.454,-74.482
16072,NORTH BERGEN,07047-6909,NJ,40.8043,-74.0121
16071,NEWTON,07860-6713,NJ,41.0582,-74.7527
16070,NEWARK,07108-1556,NJ,40.7357,-74.1724
16066,N ARLINGTON,07031-6736,NJ,,
16065,Mullica Hill,8062,NJ,,
16063,MOUNTAIN LAKES,07046-1108,NJ,40.8948,-74.4329
16062,MOUNT ARLINGTON,07856-2320,NJ,40.9259,-74.6349
16061,Morristown,7960,Nj,40.797,-74.481
16059,MORRIS PLAINS,07950-3321,NJ,40.84,-74.47
16057,MORRIS PLAINS,07950-2139,NJ,40.84,-74.47
16056,MONTCLAIR,07042-3828,NJ,40.8259,-74.209
16055,MILLSTONE TOWNSHIP,08535-8519,NJ,,
16054,MIDDLESEX,08846-1346,NJ,40.5735,-74.494
16053,MENDHAM,07945-2010,NJ,40.79,-74.57
16052,MEDFORD,08055-9285,NJ,39.9009,-74.8235
16050,MEDFORD,8055,NJ,39.9009,-74.8235
16049,MAYWOOD,07607-1810,NJ,40.9026,-74.0618
16048,MATAWAN,07747-3510,NJ,40.4148,-74.2296
16045,Martinsville,8836,NJ,,
16043,MARLTON,08053-4243,NJ,39.809,-74.8982
16042,MARLBORO,7746,NJ,40.3154,-74.2463
16041,MANALAPAN,07726-7903,NJ,40.2853,-74.3335
16040,"MAHWAH,",07430-1361,NJ,41.0887,-74.1438
16038,MAHWAH,07430-2948,NJ,41.0887,-74.1438
16037,Magnolia,8049,NJ,39.8546,-75.0391
16036,LYNDHURST,07071-2707,NJ,40.812,-74.1243
16034,LOCUST,07760-2328,NJ,,
16033,LINCROFT,07738-1014,NJ,40.3307,-74.121
16031,LEONARDO,07737-1675,NJ,40.4173,-74.0621
16030,LEBANON,08833-3100,NJ,40.6418,-74.836
16029,LAKEWOOD,08701-4150,NJ,40.0979,-74.2176
16027,Jersey City,07310-1218,NJ,40.7282,-74.0776
16026,JERSEY CITY,07307-1605,NJ,40.7282,-74.0776
16025,JERSEY CITY,07306-6641,NJ,40.7282,-74.0776
16024,Jersey City,07305-5429,NJ,40.7282,-74.0776
16023,JERSEY CITY,07302-8980,NJ,40.7282,-74.0776
16022,ISELIN,08830-2440,NJ,40.5738,-74.3235
16020,Howell,7731,NJ,40.1659,-74.1912
16019,HOBOKEN,07030-8802,NJ,40.7433,-74.0324
16018,HOBOKEN,07030-6826,NJ,40.7433,-74.0324
16017,Haskell,7420,NJ,41.0284,-74.296
16016,hamilton,8610,nj,40.2273,-74.6532
16015,HACKENSACK,07601-1258,NJ,40.8859,-74.0435
16014,Guttenberg,7093,NJ,40.792,-74.0038
16013,GALLOWAY,08205-9718,NJ,39.4879,-74.476
16012,FRANKLIN LAKES,07417-1815,NJ,41.0168,-74.2057
16011,FORT LEE,07024-5419,NJ,40.8509,-73.9701
16010,FORKED RIVER,08731-1076,NJ,,
16009,Fords,8863,NJ,40.5273,-74.3099
16008,FLEMINGTON,08822-2606,NJ,40.5123,-74.8593
16007,FARMINGDALE,07727-4306,NJ,40.1965,-74.1685
16006,FAR HILLS,07931-2804,NJ,40.6843,-74.6357
16005,Far Hills,07931-2203,NJ,40.6843,-74.6357
16003,FAIRFIELD,07004-1712,NJ,40.8837,-74.306
16000,ERIAL,08081-1064,NJ,,
15998,ENGLEWOOD CLIFFS,07632-2401,NJ,40.8854,-73.9524
15996,ELIZABETH,07208-1039,NJ,40.664,-74.2107
15994,EDISON,08820-4011,NJ,40.5187,-74.4121
15993,Edison,8820,NJ,40.5187,-74.4121
15992,Eatontown,7724,Nj,40.2962,-74.051
15990,East Windsor,8520,NJ,40.268,-74.5404
15988,EAST ORANGE,07018-3326,NJ,40.7673,-74.2049
15987,EAST BRUNSWICK,08816-4441,NJ,40.4279,-74.416
15986,DUMONT,07628-3508,NJ,40.9407,-73.9968
15985,DELRAN,08075-2654,NJ,40.0221,-74.9721
15984,CRESSKILL,7626,NJ,40.9415,-73.9593
15983,Cranford,7016,NJ,40.6584,-74.2996
15981,CRANBURY,08512-2611,NJ,40.3162,-74.5138
15980,Columbus,8022,NJ,40.0726,-74.7207
15978,COLUMBIA,07832-2797,NJ,,
15977,Closter,07624-2699,NJ,40.9732,-73.9615
15976,Clifton,7012,NJ,40.8584,-74.1638
15975,CLEMENTON,08021-4154,NJ,39.8115,-74.9829
15974,CLARK,07066-1361,NJ,40.6234,-74.3148
15973,Chatham,07928-1011,NJ,40.7,-74.43
15971,CAMDEN,08105-2424,NJ,39.9448,-75.1199
15970,califon,7830,nj,40.7195,-74.8357
15969,BRIDGETON,08302-4100,NJ,39.4273,-75.2341
15967,BOGOTA,07603-1209,NJ,40.8762,-74.0299
15965,Blackwood,8012,NJ,,
15963,BERGENFIELD,07621-4015,NJ,40.9276,-73.9974
15958,BERGENFIELD,07621-3413,NJ,40.9276,-73.9974
15957,BELLMAWR,08031-1258,NJ,39.8676,-75.0946
15955,BEDMINSTER,07921-2577,NJ,40.6807,-74.6454
15953,BEDMINSTER,07921-1861,NJ,40.6807,-74.6454
15952,Beachwood,8722,Nj,39.939,-74.1929
15951,BAYONNE,07002-3087,NJ,40.6687,-74.1143
15950,BASKING RIDGE,07920-1973,NJ,40.6853,-74.5475
15949,BARNEGAT,08005-5588,NJ,39.7532,-74.2229
15948,Avenel,07001-1403,NJ,40.5783,-74.2802
15947,ATLANTIC CITY,08401-2025,NJ,39.3643,-74.4229
15945,ABSECON,08201-1611,NJ,39.4285,-74.4957
15944,SWANZEY,03446-3206,NH,42.8698,-72.2818
15942,Sugar Hill,3586,NH,44.2153,-71.7995
15940,STRATHAM,03885-2164,NH,43.024,-70.9137
15939,SANBORNTON,03269-2103,NH,43.4892,-71.5823
15938,PORTSMOUTH,3801,NH,43.0718,-70.7626
15937,PITTSBURG,03592-4161,NH,45.0512,-71.3915
15935,Nottingham,03290-5013,NH,43.1145,-71.0998
15933,NEWMARKET,3857,NH,43.0825,-70.9359
15932,NEW CASTLE,03854-4437,NH,43.0722,-70.7167
15930,NEW BOSTON,03070-4911,NH,42.9762,-71.694
15925,Nashua,03064-2549,NH,42.7654,-71.4676
15923,MONT VERNON,03057-1106,NH,42.8945,-71.6742
15922,Londonderry,3053,NH,42.8651,-71.374
15921,LINCOLN,03251-1193,NH,44.0456,-71.6701
15920,Lincoln,3251,NH,44.0456,-71.6701
15919,LEBANON,03766-1075,NH,43.6425,-72.2514
15918,HOLLIS,03049-6565,NH,42.7432,-71.5913
15917,HAMPTON,03842-3632,NH,42.9376,-70.8389
15916,"freedom,",3836,nh,43.8123,-71.0356
15912,EPSOM,03234-5005,NH,43.2229,-71.332
15910,Derry,3038,NH,42.8809,-71.3264
15909,BELMONT,03220-0431,NH,43.4454,-71.4779
15907,WEBSTER,14580-9758,NEW YORK,43.2123,-77.43
15906,STATEN ISLAND,10309-3226,NEW YORK,40.6428,-74.0749
15904,STATEN ISLAND,10306-5725,NEW YORK,40.6428,-74.0749
15903,springfield gardens,11413,new york,40.6782,-73.7465
15901,Southampton,11968-2261,New York,40.8843,-72.3895
15900,SOUTH OZONE PARK,11420,New York,40.6701,-73.819
15899,Schenectady,12306,New York,42.8142,-73.9396
15898,SCARSDALE,10583-6619,NEW YORK,40.9691,-73.7635
15897,scarsdale,10583,new york,40.9691,-73.7635
15895,ROCKY POINT,11778-9740,NEW YORK,40.9526,-72.9254
15894,Rensselaer,12144,New York,42.6426,-73.7429
15891,POUGHQUAG,12570-5035,NEW YORK,41.609,-73.6818
15889,OZONE PARK,11417-1923,New York,40.6768,-73.8437
15888,ORISKANY,13424-3737,NEW YORK,43.1573,-75.3327
15886,Niskayuna,12309,New York,42.7781,-73.8539
15885,New York,10025,New York,40.7648,-73.9808
15883,New york,10024,new york,40.7648,-73.9808
15882,NEW YORK,10023-4198,NEW YORK,40.7648,-73.9808
15881,New york,10016-8289,new york,40.7648,-73.9808
15880,New York,10016,New York,40.7648,-73.9808
15877,NEW YORK,10011-6208,NEW YORK,40.7648,-73.9808
15874,NEW YORK,10009-5452,NEW YORK,40.7648,-73.9808
15872,MILFORD,13807-1116,NEW YORK,42.5906,-74.9452
15870,Middletown,10940,New York,41.4459,-74.4229
15869,MIDDLE VILLAGE,11379-2838,NEW YORK,40.7165,-73.8812
15867,malverne,11565,new york,40.679,-73.674
15866,LITTLE NECK,11362-2623,NEW YORK,40.762,-73.7382
15865,LEWISTON,14092-1912,NEW YORK,43.1726,-79.0359
15864,Laurelton,11413-1211,NEW YORK,,
15863,LARCHMONT,10538-2220,NEW YORK,40.9279,-73.7518
15862,KATONAH,10536-3204,NEW YORK,41.2588,-73.6854
15861,HUNTINGTON STATION,11746-1668,NEW YORK,40.8534,-73.4115
15860,FREDONIA,14063-9609,NEW YORK,42.4401,-79.3317
15858,DOVER PLAINS,12522-5135,NEW YORK,41.7412,-73.5765
15857,DIX HILLS,11746-6736,NEW YORK,40.8048,-73.3362
15856,CORNING,14830-9244,NEW YORK,42.1429,-77.0547
15855,commack,11725,New York,40.8429,-73.2929
15854,CARTHAGE,13619-1212,NEW YORK,43.9781,-75.6094
15853,Buffalo,14216,New York,42.9333,-78.877
15852,BUFFALO,14209-1208,NEW YORK,42.9333,-78.877
15850,BROOKLYN,11239-1202,NEW YORK,40.6922,-73.9902
15847,Brooklyn,11234,New York,40.6922,-73.9902
15845,BROOKLYN,11217-4209,NEW YORK,40.6922,-73.9902
15844,BROOKLYN,11212-1347,NEW YORK,40.6922,-73.9902
15843,BROOKLYN,11208-2758,NEW YORK,40.6922,-73.9902
15841,BROOKLYN,11204,New York,40.6922,-73.9902
15840,BRONX,10458-6515,NEW YORK,40.8262,-73.9231
15839,Bohemia,11716,New York,40.7693,-73.1151
15838,Santa Fe,87501,New Mexico,35.687,-105.9378
15837,Ranchos de Taos,87557-0471,New Mexico,36.3586,-105.6095
15836,LAS CRUCES,88011-4050,NEW MEXICO,32.314,-106.7798
15835,LAS CRUCES,88005-8204,NEW MEXICO,32.314,-106.7798
15834,ALBUQUERQUE,87122-3892,NEW MEXICO,35.0841,-106.651
15832,Willingboro,8046,New Jersey,40.0279,-74.8691
15831,Villas,8251,New Jersey,39.0287,-74.9385
15830,sewell,8080,new jersey,,
15829,RINGOES,08551-2049,NEW JERSEY,,
15827,PENNSAUKEN,08109-1874,NEW JERSEY,39.9562,-75.058
15826,PALISADES PARK,07650-1311,NEW JERSEY,40.8482,-73.9976
15825,Ocean City,8226,New Jersey,39.2776,-74.5746
15823,Oakland,7436,New Jersey,41.022,-74.2431
15822,MOORESTOWN,08057-2676,NEW JERSEY,39.9671,-74.9427
15821,MONROE TOWNSHIP,08831-5475,NEW JERSEY,,
15820,MANCHESTER,08759-4534,NEW JERSEY,39.9735,-74.3817
15819,Lodi,07644-2230,New Jersey,40.8823,-74.0832
15815,HILLSIDE,07205-1115,NEW JERSEY,40.7012,-74.2301
15814,Carneys Point,8069,New Jersey,39.7112,-75.4702
15813,Caldwell,07006-5606,New Jersey,40.8398,-74.2765
15812,basking ridge,7920,New Jersey,40.6853,-74.5475
15811,Goffstown,3045,New Hampshire,43.0204,-71.6003
15810,Derry,3038,New Hampshire,42.8809,-71.3264
15809,SPARKS,89436-2525,NEVADA,39.5348,-119.7528
15808,Omaha,68104,Nebraska,41.2587,-95.9379
15807,Lincoln,68521,Nebraska,40.8001,-96.6674
15806,THEDFORD,69166-6315,NE,41.9782,-100.5741
15805,STEINAUER,68441-5149,NE,40.2078,-96.2342
15804,RUSKIN,68974-7011,NE,40.1439,-97.8692
15803,OMAHA,68154-2136,NE,41.2587,-95.9379
15802,OMAHA,68142-1743,NE,41.2587,-95.9379
15801,omaha,68132,NE,41.2587,-95.9379
15800,OMAHA,68122-2268,NE,41.2587,-95.9379
15799,OMAHA,68118-2016,NE,41.2587,-95.9379
15797,OMAHA,68114-2932,NE,41.2587,-95.9379
15796,OMAHA,68111-0661,NE,41.2587,-95.9379
15795,Omaha,68107,NE,41.2587,-95.9379
15793,NORFOLK,68701-3363,NE,42.0283,-97.417
15791,LINWOOD,68036-3067,NE,41.4122,-96.9314
15790,Kearney,68845,NE,40.6995,-99.0819
15789,Holdrege,68949,Ne,40.4403,-99.3698
15787,Hebron,68370,NE,40.1664,-97.5859
15786,WEST FARGO,58078-8053,ND,46.875,-96.9004
15785,WEST FARGO,58078-7995,ND,46.875,-96.9004
15783,Rhame,58651,ND,46.2325,-103.6555
15782,POWERS LAKE,58773-9293,ND,48.5628,-102.648
15781,New Rockford,58356,ND,47.68,-99.1379
15780,MINOT,58701-7488,ND,48.2325,-101.2963
15777,MANDAN,58554-4456,ND,46.8264,-100.8897
15776,HORACE,58047-9700,ND,46.7589,-96.9037
15775,HANKINSON,58041-9793,ND,46.0697,-96.9017
15774,GRAND FORKS,58203-2135,ND,47.9078,-97.0592
15773,GRAFTON,58237-1742,ND,48.4122,-97.4106
15769,FARGO,58102-1127,ND,46.8772,-96.7898
15768,DICKINSON,58601-2920,ND,46.8792,-102.7896
15766,Bismarck,58503-9299,ND,46.8083,-100.7837
15764,BISMARCK,58503-0115,ND,46.8083,-100.7837
15763,YADKINVILLE,27055-7104,NC,36.1346,-80.6595
15762,Yadkinville,27055,NC,36.1346,-80.6595
15759,WINSTON SALEM,27106-4343,NC,36.0999,-80.2442
15758,Wilson,27896-2031,NC,35.7213,-77.9155
15757,WILMINGTON,28412-5142,NC,34.2257,-77.9447
15756,WILMINGTON,28412-3272,NC,34.2257,-77.9447
15755,WILMINGTON,28411-7920,NC,34.2257,-77.9447
15754,Wilmington,28409,NC,34.2257,-77.9447
15753,Wilmington,28405-6202,NC,34.2257,-77.9447
15752,WESLEY CHAPEL,28104-8900,NC,35.0071,-80.6745
15750,Waynesville,28786,NC,35.4887,-82.9889
15749,WAXHAW,28173-6992,NC,34.9246,-80.7434
15748,WAXHAW,28173-4701,NC,34.9246,-80.7434
15747,WAXHAW,28173-3300,NC,34.9246,-80.7434
15746,WAKE FOREST,27587-5859,NC,35.9803,-78.5103
15745,TROUTMAN,28166-8780,NC,35.7007,-80.8881
15744,TROUTMAN,28166-8618,NC,35.7007,-80.8881
15743,Timberlake,27583,NC,36.2863,-78.9525
15740,Thomasville,27360,NC,35.8832,-80.0818
15739,SWANNANOA,28778-2142,NC,35.5979,-82.3998
15738,Stokes,27884-9633,NC,35.7165,-77.2647
15737,STATESVILLE,28677-1738,NC,35.7826,-80.8873
15734,Seven Lakes,27376,NC,,
15733,SALISBURY,28144-9493,NC,35.671,-80.4742
15732,ROCKINGHAM,28379-3015,NC,34.9393,-79.7739
15730,Rockingham,28379,NC,34.9393,-79.7739
15729,REIDSVILLE,27320-9447,NC,36.3549,-79.6645
15728,RALEIGH,27609-7429,NC,35.7804,-78.6391
15727,PITTSBORO,27312-5301,NC,35.7202,-79.1772
15725,PINEHURST,28374-7154,NC,35.1954,-79.4695
15724,PINEBLUFF,28373-5525,NC,35.1099,-79.4723
15723,PFAFFTOWN,27040-9468,NC,36.1526,-80.3623
15722,OAK RIDGE,27310-9741,NC,36.1735,-79.9889
15721,NEW BERN,28562-4455,NC,35.1085,-77.0441
15720,Mooresville,28117,NC,35.5849,-80.8101
15719,MONROE,28110-9050,NC,34.9854,-80.5495
15717,Monroe,28110,NC,34.9854,-80.5495
15716,MILLS RIVER,28759,NC,35.3884,-82.5668
15714,Midland,28107,NC,35.2274,-80.5006
15713,MATTHEWS,28105-7613,NC,35.1168,-80.7237
15712,MATTHEWS,28105-0861,NC,35.1168,-80.7237
15709,MADISON,27025-8445,NC,36.3854,-79.9595
15708,LILLINGTON,27546-6395,NC,35.3991,-78.8156
15707,LIBERTY,27298-9309,NC,35.8535,-79.5717
15706,LAKE TOXAWAY,28747-8656,NC,35.1325,-82.9338
15705,JACKSONVILLE,28546-0002,NC,34.7541,-77.4302
15704,Jacksonville,28540,NC,34.7541,-77.4302
15703,HOPE MILLS,28348-7518,NC,34.9704,-78.9453
15701,HOLLY SPRINGS,27540-8524,NC,35.6513,-78.8336
15700,HIGH POINT,27263-4041,NC,35.9557,-80.0053
15699,HIGH POINT,27260-3729,NC,35.9557,-80.0053
15696,Hendersonville,28791,NC,35.3187,-82.461
15695,Hendersonville,28739,NC,35.3187,-82.461
15694,HAYESVILLE,28904-4511,NC,35.0462,-83.818
15692,HAMPSTEAD,28443-2832,NC,34.3677,-77.7105
15691,hampstead,28443,nc,34.3677,-77.7105
15690,GREENSBORO,27455-2180,NC,36.0726,-79.792
15689,GREENSBORO,27410-9124,NC,36.0726,-79.792
15687,Greensboro,27410-3820,NC,36.0726,-79.792
15683,Greensboro,27409,NC,36.0726,-79.792
15681,GREENSBORO,27408-3841,NC,36.0726,-79.792
15680,GIBSONVILLE,27249-9769,NC,36.1057,-79.5422
15679,GASTONIA,28054-5185,NC,35.2621,-81.1873
15678,FRANKLIN,28734-9371,NC,35.1823,-83.3815
15677,FLAT ROCK,28731-6500,NC,35.2712,-82.4415
15676,Fayetteville,28304,NC,35.053,-78.8787
15675,Elon,27244-9404,NC,36.1029,-79.5067
15674,Elkin,28621,NC,36.2443,-80.8484
15673,ELIZABETH CITY,27909-8932,NC,36.2957,-76.2248
15671,Elizabeth City,27909,NC,36.2957,-76.2248
15670,DURHAM,27705-6908,NC,35.994,-78.8986
15669,DURHAM,27705-1629,NC,35.994,-78.8986
15668,DURHAM,27703-8517,NC,35.994,-78.8986
15667,DURHAM,27703-7604,NC,35.994,-78.8986
15665,DUNN,28334-3606,NC,35.3063,-78.6089
15664,DENVER,28037-9153,NC,35.5312,-81.0298
15663,DENVER,28037-8645,NC,35.5312,-81.0298
15661,cramerton,28032,nc,35.2388,-81.0751
15660,concord nc,28027,nc,,
15659,CONCORD,28027-2826,NC,35.4094,-80.5797
15658,CHOCOWINITY,27817-9469,NC,35.5126,-77.1009
15657,"Charlotte,",28207,NC,35.2271,-80.8431
15656,CHARLOTTE,28273-8873,NC,35.2271,-80.8431
15655,CHARLOTTE,28273-6714,NC,35.2271,-80.8431
15654,CHARLOTTE,28270-2846,NC,35.2271,-80.8431
15653,Charlotte,28270,NC,35.2271,-80.8431
15652,CHARLOTTE,28269-2196,NC,35.2271,-80.8431
15651,CHARLOTTE,28215-9768,NC,35.2271,-80.8431
15649,Charlotte,28209,NC,35.2271,-80.8431
15648,CHARLOTTE,28203-6513,NC,35.2271,-80.8431
15646,CHAPEL HILL,27517-9126,NC,35.9132,-79.0558
15645,CHAPEL HILL,27517-8960,NC,35.9132,-79.0558
15644,CHAPEL HILL,27517-6594,NC,35.9132,-79.0558
15643,CHAPEL HILL,27516-9172,NC,35.9132,-79.0558
15641,CHAPEL HILL,27516-8376,NC,35.9132,-79.0558
15640,Chapel Hill,27516-8345,NC,35.9132,-79.0558
15639,CHAPEL HILL,27514-1837,NC,35.9132,-79.0558
15638,CARY,27519-2848,NC,35.7883,-78.7812
15637,CARY,27519-0999,NC,35.7883,-78.7812
15636,CARY,27518-8205,NC,35.7883,-78.7812
15634,Cary,27513,NC,35.7883,-78.7812
15632,CARY,27511-3594,NC,35.7883,-78.7812
15630,CARTHAGE,28327-5015,NC,35.3458,-79.4171
15628,CANDLER,28715-9446,NC,35.5365,-82.6929
15626,BURGAW,28425-3120,NC,34.5521,-77.9261
15625,BREVARD,28712-9202,NC,35.2334,-82.7343
15624,BISCOE,27209-9600,NC,35.3601,-79.7797
15623,ASHEVILLE,28806-4500,NC,35.6009,-82.554
15622,Asheville,28804,NC,35.6009,-82.554
15621,ASHEVILLE,28803-8402,NC,35.6009,-82.554
15620,ASHEVILLE,28801-2959,NC,35.6009,-82.554
15619,Apex,27539,NC,35.7325,-78.8506
15618,ADVANCE,27006-8543,NC,35.9412,-80.4092
15615,SNYDER,14226,N.Y.,,
15612,Linwood,27299,N.C.,35.75,-80.35
15611,durham,27704,n.c.,35.994,-78.8986
15610,WHITE SULPHUR SPRINGS,59645-9088,MT,46.5484,-110.9029
15609,MISSOULA,59803-1173,MT,46.8701,-113.9953
15608,LIBBY,59923-9158,MT,48.3883,-115.556
15607,LEWISTOWN,59457-1973,MT,47.0625,-109.4282
15606,LAUREL,59044,MT,45.6691,-108.7715
15605,Kila,59920,MT,48.1202,-114.4568
15604,Kalispell,59901,MT,48.2023,-114.3167
15603,DILLON,59725-2531,MT,45.2164,-112.6378
15602,Colstrip,59323-0188,MT,45.8842,-106.6236
15601,BOZEMAN,59715-3805,MT,45.68,-111.0447
15599,BILLINGS,59105-2369,MT,45.7875,-108.4961
15598,Bigfork,59911,MT,48.0633,-114.0726
15597,VICKSBURG,39180-5449,MS,32.3528,-90.8777
15596,TERRY,39170-9362,MS,32.0963,-90.2943
15594,Picayune,39466-2427,MS,30.5255,-89.6795
15593,PEARL,39208-6210,MS,32.2746,-90.132
15592,PEARL,39208-5446,MS,32.2746,-90.132
15590,PEARL,39208,MS,32.2746,-90.132
15589,OLIVE BRANCH,38654-8227,MS,34.9618,-89.8295
15587,OLIVE BRANCH,38654,MS,34.9618,-89.8295
15585,MADISON,39110-9605,MS,32.4618,-90.1154
15584,MADISON,39110-6616,MS,32.4618,-90.1154
15582,HATTIESBURG,39402-8866,MS,31.3271,-89.2903
15581,GREENVILLE,38701,MS,33.4001,-91.0551
15579,DIAMONDHEAD,39525,MS,30.3946,-89.3639
15578,CRAWFORD,39743,MS,33.3015,-88.6148
15577,Corinth,38834,MS,34.9343,-88.5223
15576,BOGUE CHITTO,39629-8388,MS,31.4388,-90.4523
15574,BILOXI,39531-2811,MS,30.396,-88.8854
15573,BIG CREEK,38914-2693,MS,33.8526,-89.4112
15572,BAILEY,39320-9762,MS,32.4676,-88.7228
15571,ABERDEEN,39730-9739,MS,33.8251,-88.5437
15570,MISSOULA,59808-9023,MONTANA,46.8701,-113.9953
15569,GREAT FALLS,59405-1306,MONTANA,47.5049,-111.2919
15568,ALBERTON,59820-9321,MONTANA,47.0016,-114.4735
15567,WENTZVILLE,63385-2301,MO,38.8114,-90.8529
15565,wentzville,63385,mo,38.8114,-90.8529
15563,VANDALIA,63382-2442,MO,39.3109,-91.4885
15562,st. louis,63117,mo,38.63,-90.19
15561,St Louis,63122,MO,38.63,-90.19
15557,SPRINGFIELD,65809-3374,MO,37.2153,-93.2983
15556,Springfield,65809,MO,37.2153,-93.2983
15555,Saint Peters,63376-4277,MO,38.8,-90.62
15554,SAINT LOUIS,63146-4938,MO,38.63,-90.19
15553,Saint Louis,63146-4547,MO,38.63,-90.19
15552,SAINT LOUIS,63144-2009,MO,38.63,-90.19
15551,Saint Louis,63131-2613,MO,38.63,-90.19
15550,SAINT LOUIS,63130-3720,MO,38.63,-90.19
15549,SAINT LOUIS,63129-4701,MO,38.63,-90.19
15547,SAINT LOUIS,63129-4212,MO,38.63,-90.19
15545,Saint Louis,63128-1106,MO,38.63,-90.19
15544,SAINT LOUIS,63124-1601,MO,38.63,-90.19
15543,SAINT LOUIS,63124-1559,MO,38.63,-90.19
15541,Saint Louis,63122,MO,38.63,-90.19
15540,SAINT LOUIS,63116-3049,MO,38.63,-90.19
15539,SAINT CHARLES,63304-0317,MO,38.79,-90.5
15537,SAINT CHARLES,63303-4434,MO,38.79,-90.5
15535,Saint Charles,63301,MO,38.79,-90.5
15533,ROGERSVILLE,65742-7584,MO,37.117,-93.0557
15532,ROCK PORT,64482-1641,MO,40.4111,-95.5169
15531,PINEVILLE,64856-9636,MO,36.5945,-94.3841
15530,PERRY,63462-1322,MO,39.4312,-91.6752
15529,OZARK,65721-8059,MO,37.0209,-93.206
15528,OZARK,65721-4242,MO,37.0209,-93.206
15527,O FALLON,63368-7285,MO,38.77,-90.78
15526,O FALLON,63368-6660,MO,38.77,-90.78
15525,MONTGOMERY CITY,63361-4617,MO,38.9775,-91.5049
15524,MOBERLY,65270-3006,MO,39.4184,-92.4382
15523,KEARNEY,64060-8508,MO,39.3678,-94.3622
15522,KANSAS CITY,64152-1783,MO,39.0845,-94.563
15521,KANSAS CITY,64151-8232,MO,39.0845,-94.563
15520,KANSAS CITY,64131-4102,MO,39.0845,-94.563
15518,KANSAS CITY,64114-2155,MO,39.0845,-94.563
15517,JOPLIN,64804-4904,MO,37.0842,-94.5133
15516,JOPLIN,64804-2231,MO,37.0842,-94.5133
15514,JEFFERSON CITY,65109-6873,MO,38.5774,-92.1724
15513,Independence,64057,MO,39.0911,-94.4155
15512,INDEPENDENCE,64055-7602,MO,39.0911,-94.4155
15511,INDEPENDENCE,64055-4206,MO,39.0911,-94.4155
15510,Independence,64055,MO,39.0911,-94.4155
15508,Gladstone,64119,MO,39.2039,-94.5547
15507,FESTUS,63028-5626,MO,38.2207,-90.396
15506,Fenton,63026-8003,MO,38.5133,-90.4402
15505,FENTON,63026-6959,MO,38.5133,-90.4402
15504,Essex,63846,MO,36.8126,-89.8615
15503,Crystal City,63019,MO,38.2212,-90.379
15502,CONCORDIA,64020,MO,38.9833,-93.5685
15500,Clayton,63105,MO,38.6426,-90.3237
15498,BRANSON,65616-9770,MO,36.644,-93.2171
15497,Ballwin,63011,MO,38.595,-90.5469
15494,Woodbury,55125-3534,MN,44.9232,-92.9588
15493,WAYZATA,55391-3507,MN,44.9742,-93.507
15492,Waconia,55387-9552,MN,44.8508,-93.7869
15491,WACONIA,55387-9448,MN,44.8508,-93.7869
15489,Stewartville,55976,MN,43.8554,-92.4883
15488,ST LOUIS PARK,55416-3236,MN,44.9486,-93.365
15485,ST LOUIS PARK,55416-2949,MN,44.9486,-93.365
15484,SOLWAY,56678-4515,MN,46.78,-92.39
15483,SOLWAY,56678,MN,46.78,-92.39
15482,SHOREVIEW,55126-1215,MN,45.0722,-93.1283
15480,Shakopee,55379,MN,44.798,-93.5269
15478,SAINT PAUL,55129,MN,44.9504,-93.1015
15475,SAINT PAUL,55127-2581,MN,44.9504,-93.1015
15473,SAINT PAUL,55108,MN,44.9504,-93.1015
15472,Saint Paul,55103-1369,MN,44.9504,-93.1015
15471,RUSHFORD,55971-9010,MN,43.8083,-91.7529
15469,ROSEVILLE,55113,MN,45.0061,-93.1566
15468,Rockville,56369,MN,45.4719,-94.3408
15467,ROCHESTER,55906-7702,MN,44.0233,-92.463
15466,ROCHESTER,55902-3440,MN,44.0233,-92.463
15465,ROCHESTER,55902-1537,MN,44.0233,-92.463
15464,RICHFIELD,55423-2370,MN,44.8766,-93.2878
15463,RED WING,55066-7154,MN,44.5625,-92.5338
15462,PLYMOUTH,55446-2952,MN,45.0065,-93.4665
15460,OWATONNA,55060-3973,MN,44.084,-93.2261
15458,ONAMIA,56359-0500,MN,46.0705,-93.6677
15457,NORTHFIELD,55057-3345,MN,44.4582,-93.1612
15456,MOUNDS VIEW,55112-1541,MN,45.1069,-93.2076
15454,MINNEAPOLIS,55432-2194,MN,44.9773,-93.2655
15453,MINNEAPOLIS,55416-5235,MN,44.9773,-93.2655
15452,MINNEAPOLIS,55411-4168,MN,44.9773,-93.2655
15450,MINNEAPOLIS,55410-1257,MN,44.9773,-93.2655
15449,Minneapolis,55409,MN,44.9773,-93.2655
15448,Minneapolis,55401,MN,44.9773,-93.2655
15447,MENDOTA HEIGHTS,55118-3631,MN,44.8836,-93.1383
15445,MAHTOMEDI,55115-2705,MN,45.0697,-92.9516
15444,Mahtomedi,55115,Mn,45.0697,-92.9516
15443,LAKEVILLE,55044-4432,MN,44.6501,-93.2433
15442,LAKE ELMO,55042-9439,MN,44.9958,-92.8794
15440,Lake Bronson,56734,MN,48.7355,-96.6628
15438,Hutchinson,55350-6739,MN,44.8877,-94.3697
15437,HOPKINS,55305-1486,MN,44.9271,-93.4075
15436,Hastings,55033-9453,MN,44.7427,-92.8519
15435,Golden Valley,55416,MN,45.002,-93.3585
15434,FOREST LAKE,55025-1931,MN,45.2788,-92.9853
15433,FERGUS FALLS,56537-1286,MN,46.283,-96.0776
15432,FERGUS FALLS,56537-1223,MN,46.283,-96.0776
15429,ELY,55731-8230,MN,47.9032,-91.8671
15428,EDINA,55439-2650,MN,44.8897,-93.3501
15427,EDINA,55436-1655,MN,44.8897,-93.3501
15426,Edina,55424,MN,44.8897,-93.3501
15424,EDEN PRAIRIE,55347-1439,MN,44.8547,-93.4708
15423,EASTON,56025-7109,MN,43.7658,-93.9011
15422,DULUTH,55804-2217,MN,46.7729,-92.1251
15421,Crystal,55427,MN,45.0376,-93.3593
15419,COLUMBIA HEIGHTS,55421-4017,MN,45.046,-93.2518
15417,CLEAR LAKE,55319,MN,45.44,-93.96
15416,CHANHASSEN,55317,MN,44.8618,-93.5307
15415,CARVER,55315-4556,MN,44.7636,-93.6258
15414,BROOKLYN PARK,55443-5418,MN,45.1005,-93.3444
15412,Bloomington,55438,MN,44.8322,-93.3205
15411,BLOOMINGTON,55437-2219,MN,44.8322,-93.3205
15410,BLAINE,55449-7301,MN,45.1608,-93.2349
15408,BEMIDJI,56601-8714,MN,47.4787,-94.8908
15407,ASHBY,56309-0151,MN,46.093,-95.8175
15406,Saint Robert,65584,Missouri,37.8281,-92.1777
15405,SAINT LOUIS,63138-1445,MISSOURI,38.63,-90.19
15402,SAINT LOUIS,63131-2901,MISSOURI,38.63,-90.19
15400,SAINT LOUIS,63129-4647,MISSOURI,38.63,-90.19
15399,Monroe City,63456,Missouri,39.6537,-91.7346
15398,Kansas City,64119,Missouri,39.0845,-94.563
15397,Kansas City,64113-2215,Missouri,39.0845,-94.563
15396,Carriere,39426,Mississippi,30.6169,-89.6526
15395,WINONA,55987,Minnesota,44.05,-91.6393
15394,SPRING VALLEY,55975-4717,MINNESOTA,43.6869,-92.3891
15393,Middle River,56737,Minnesota,48.31,-96.88
15392,Faribault,55021,Minnesota,44.295,-93.2688
15389,ELY,55731-1021,MINNESOTA,47.9032,-91.8671
15388,Blaine,55434,Minnesota,45.1608,-93.2349
15386,TROY,48083-6015,MICHIGAN,42.6056,-83.1499
15385,sterling heights,48312,Michigan,42.5803,-83.0302
15384,Southgate,48195,Michigan,42.2032,-83.2083
15382,Shelby Township,48315,Michigan,,
15381,MUSKEGON,49441-3151,MICHIGAN,43.2342,-86.2484
15380,MACOMB,48044-2819,MICHIGAN,42.6741,-82.9029
15379,grosse pointe park,48230-1849,michigan,42.3759,-82.9374
15376,EAST LANSING,48823-7378,MICHIGAN,42.7355,-84.4852
15374,Dearborn,48124,Michigan,42.3223,-83.1763
15373,CANADIAN LAKES,49346-9725,MICHIGAN,,
15372,BROWNSTOWN,48183-4856,MICHIGAN,,
15370,Bloomfield Hills,48304,Michigan,42.5836,-83.2455
15369,BELLAIRE,49615-8401,MICHIGAN,44.9803,-85.2112
15368,YPSILANTI,48197-7115,MI,42.2411,-83.613
15367,WHITMORE LAKE,48189-9332,MI,42.4395,-83.7438
15366,WHITE PIGEON,49099-9768,MI,41.7981,-85.6433
15365,TROY,48098-2480,MI,42.6056,-83.1499
15364,TROY,48085-5719,MI,42.6056,-83.1499
